City_ID,City,Lat,Lng,Max Temp,Humidity,Cloudiness,Wind Speed,Country,Date
0,albany,42.6001,-73.9662,15.23,55,14,4.15,US,1676508368
1,ushuaia,-54.8,-68.3,3.79,93,75,9.26,AR,1676508106
2,nevesinje,43.2586,18.1133,-5.52,75,0,2.15,BA,1676508369
3,honiara,-9.4333,159.95,30.82,66,96,2.71,SB,1676508369
4,punta arenas,-53.15,-70.9167,6.06,56,20,8.75,CL,1676508173
5,mataura,-46.1927,168.8643,14.71,64,100,1.61,NZ,1676508130
6,quatre cocos,-20.2078,57.7625,23.38,77,16,2.56,MU,1676508370
7,ponta delgada,37.7333,-25.6667,12.4,76,75,1.03,PT,1676508370
8,mumford,5.2618,-0.759,26.39,89,39,2.72,GH,1676508348
9,port elizabeth,-33.918,25.5701,20.61,88,40,1.54,ZA,1676508371
10,sept-iles,50.2001,-66.3821,-2.0,90,100,2.06,CA,1676508183
11,ahipara,-35.1667,173.1667,20.17,80,14,3.78,NZ,1676508294
12,nanortalik,60.1432,-45.2371,-5.7,67,100,1.8,GL,1676508372
13,mahebourg,-20.4081,57.7,23.47,77,7,2.1,MU,1676508372
14,general roca,-39.0333,-67.5833,25.9,21,100,8.79,AR,1676508373
15,upernavik,72.7868,-56.1549,-24.4,71,100,4.15,GL,1676508159
16,achinsk,56.2694,90.4993,-24.9,100,96,0.76,RU,1676508373
17,ancud,-41.8697,-73.8203,11.17,63,19,6.02,CL,1676508374
18,horsham,51.064,-0.3272,10.17,88,75,3.09,GB,1676508374
19,lebu,-37.6167,-73.65,14.62,81,0,9.71,CL,1676508375
20,montepuez,-13.1256,38.9997,20.61,97,100,1.83,MZ,1676508376
21,srednekolymsk,67.45,153.6833,-34.39,95,100,1.75,RU,1676508376
22,berlevag,70.8578,29.0864,1.0,80,40,9.77,NO,1676508340
23,avarua,-21.2078,-159.775,30.03,74,40,2.57,CK,1676508377
24,oistins,13.0667,-59.5333,25.05,73,20,8.23,BB,1676508378
25,la ronge,55.1001,-105.2842,-19.86,59,0,1.54,CA,1676508164
26,ribeira grande,38.5167,-28.7,15.99,70,85,7.6,PT,1676508379
27,butaritari,3.0707,172.7902,27.36,76,74,4.78,KI,1676508379
28,faanui,-16.4833,-151.75,27.7,74,21,4.52,PF,1676508379
29,bayji,34.9311,43.487,6.98,50,76,3.03,IQ,1676508380
30,diego de almagro,-26.3667,-70.05,19.53,52,0,1.54,CL,1676508381
31,coracao de jesus,-16.6853,-44.365,22.06,62,99,1.89,BR,1676508381
32,miri,4.4148,114.0089,25.08,94,40,1.03,MY,1676508163
33,ituporanga,-27.4144,-49.6025,20.48,95,100,0.58,BR,1676508382
34,hobart,-42.8794,147.3294,23.48,50,0,5.66,AU,1676508302
35,atuona,-9.8,-139.0333,26.03,73,38,5.45,PF,1676508142
36,meulaboh,4.1363,96.1285,24.63,87,100,2.02,ID,1676508383
37,rikitea,-23.1203,-134.9692,26.16,71,100,2.44,PF,1676508384
38,busselton,-33.65,115.3333,19.39,61,69,1.92,AU,1676508133
39,longyearbyen,78.2186,15.6401,-6.09,86,20,5.14,SJ,1676508206
40,vila franca do campo,37.7167,-25.4333,12.23,81,30,1.74,PT,1676508233
41,vaini,-21.2,-175.2,27.52,76,49,4.22,TO,1676508131
42,dikson,73.5069,80.5464,-19.7,97,100,9.63,RU,1676508385
43,sorland,67.667,12.6934,6.92,89,100,5.47,NO,1676508386
44,mar del plata,-38.0023,-57.5575,20.53,64,0,7.72,AR,1676508139
45,bluff,-46.6,168.3333,14.89,72,100,3.35,NZ,1676508386
46,bambanglipuro,-7.95,110.2833,26.05,84,100,2.5,ID,1676508387
47,aklavik,68.2191,-135.0107,-29.0,76,75,1.03,CA,1676508149
48,palmer,42.1584,-72.3287,12.23,68,20,4.63,US,1676508159
49,kodiak,57.79,-152.4072,-3.27,46,0,7.2,US,1676508247
50,cherskiy,68.75,161.3,-38.51,97,65,1.27,RU,1676508216
51,pemberton,50.3164,-122.8027,3.83,87,100,1.23,CA,1676508345
52,codrington,-38.2667,141.9667,33.19,18,100,5.44,AU,1676508249
53,fallon,39.4735,-118.7774,3.03,34,20,2.06,US,1676508389
54,norman wells,65.282,-126.8329,-25.98,70,100,1.03,CA,1676508252
55,saint-philippe,-21.3585,55.7679,22.77,80,90,3.78,RE,1676508167
56,ixtapa,20.7,-105.2,22.57,73,0,5.66,MX,1676507849
57,bilibino,68.0546,166.4372,-30.79,92,20,0.74,RU,1676508390
58,severo-kurilsk,50.6789,156.125,-2.74,80,100,14.07,RU,1676508178
59,libertador general san martin,-23.8064,-64.7876,26.1,80,100,3.44,AR,1676508392
60,iqaluit,63.7506,-68.5145,-30.73,67,20,5.14,CA,1676508153
61,severo-yeniseyskiy,60.3725,93.0408,-26.84,100,100,1.63,RU,1676508393
62,nago,26.5881,127.9761,18.24,67,76,4.55,JP,1676508393
63,the valley,18.217,-63.0578,25.61,76,0,9.54,AI,1676508394
64,tasiilaq,65.6145,-37.6368,-7.91,75,84,2.4,GL,1676508135
65,castro,-24.7911,-50.0119,17.99,97,100,1.31,BR,1676508165
66,abu dhabi,24.4667,54.3667,22.01,33,0,3.6,AE,1676507824
67,qaqortoq,60.7167,-46.0333,-10.39,62,100,2.94,GL,1676508395
68,zemio,5.0314,25.1361,20.55,28,21,2.18,CF,1676508395
69,tarko-sale,64.9225,77.785,-14.22,93,100,5.58,RU,1676508396
70,taltal,-25.4,-70.4833,20.48,79,0,0.37,CL,1676508396
71,arraial do cabo,-22.9661,-42.0278,26.98,74,40,5.14,BR,1676508160
72,derzhavinsk,51.1,66.3167,-10.9,95,100,2.72,KZ,1676508397
73,pirapo,-26.85,-55.5333,23.68,78,99,1.25,PY,1676508397
74,hamilton,39.1834,-84.5333,18.43,57,0,4.12,US,1676508398
75,tabou,4.423,-7.3528,26.83,85,97,3.06,CI,1676508398
76,east london,-33.0153,27.9116,22.4,91,98,5.66,ZA,1676508167
77,tiksi,71.6872,128.8694,-24.89,97,100,3.16,RU,1676508176
78,sao felix do xingu,-6.6447,-51.995,22.58,98,94,0.41,BR,1676508399
79,mehamn,71.0357,27.8492,0.97,80,57,6.17,NO,1676508273
80,san quintin,30.4833,-115.95,13.28,44,9,4.25,MX,1676508400
81,kinsale,51.7075,-8.5306,10.65,100,75,5.66,IE,1676508400
82,toora-khem,52.4675,96.11,-28.61,100,95,0.36,RU,1676508313
83,cape town,-33.9258,18.4232,21.32,70,0,9.26,ZA,1676508168
84,lavrentiya,65.5833,-171.0,-28.63,92,12,1.85,RU,1676508340
85,chokurdakh,70.6333,147.9167,-41.53,100,91,1.0,RU,1676508401
86,halmstad,56.6745,12.8568,3.34,95,100,2.89,SE,1676508401
87,yellowknife,62.456,-114.3525,-27.71,76,20,1.54,CA,1676508138
88,katangli,51.7102,143.2326,-17.12,80,11,6.66,RU,1676508239
89,kenai,60.5544,-151.2583,-1.95,84,100,1.54,US,1676508402
90,harper,4.375,-7.7169,26.86,83,36,2.94,LR,1676508402
91,orocue,4.7912,-71.3354,27.27,65,36,2.98,CO,1676508403
92,kavaratti,10.5669,72.642,26.55,74,24,3.48,IN,1676508158
93,okoneshnikovo,54.8377,75.0834,-27.03,100,72,2.02,RU,1676508404
94,constitucion,-35.3333,-72.4167,14.95,82,0,7.39,CL,1676508404
95,port alfred,-33.5906,26.891,21.21,95,100,0.45,ZA,1676508180
96,ponta do sol,32.6667,-17.1,15.95,62,54,6.01,PT,1676508144
97,tecoanapa,16.5167,-98.75,25.54,72,0,3.21,MX,1676508405
98,juneau,58.3019,-134.4197,2.34,100,100,1.67,US,1676507959
99,praia da vitoria,38.7333,-27.0667,15.42,72,75,5.53,PT,1676508405
100,hobyo,5.3505,48.5268,24.36,75,27,6.84,SO,1676508255
101,thompson,55.7435,-97.8558,-24.91,64,20,2.57,CA,1676508143
102,hithadhoo,-0.6,73.0833,27.09,79,11,4.58,MV,1676508176
103,clyde river,70.4692,-68.5914,-31.87,75,100,8.23,CA,1676508230
104,broken hill,-31.95,141.4333,34.59,18,0,7.14,AU,1676508406
105,sambava,-14.2667,50.1667,23.61,91,16,2.22,MG,1676508407
106,jamestown,42.097,-79.2353,15.8,39,0,9.77,US,1676508149
107,kapaa,22.0752,-159.319,23.99,80,35,3.13,US,1676508407
108,hermanus,-34.4187,19.2345,17.67,87,18,6.68,ZA,1676508407
109,sakakah,29.9697,40.2064,5.76,50,6,3.63,SA,1676508408
110,bredasdorp,-34.5322,20.0403,19.02,87,17,6.02,ZA,1676508408
111,tautira,-17.7333,-149.15,27.04,76,23,3.62,PF,1676508318
112,zhengjiatun,43.5064,123.5064,-5.9,39,100,6.2,CN,1676508409
113,bethel,41.3712,-73.414,14.32,74,0,2.06,US,1676508409
114,pangnirtung,66.1451,-65.7125,-27.46,100,100,1.43,CA,1676508409
115,saldanha,-33.0117,17.9442,18.03,89,0,5.76,ZA,1676508410
116,nome,64.5011,-165.4064,-24.38,77,0,2.57,US,1676508080
117,barahona,18.2085,-71.1008,24.48,81,1,4.93,DO,1676508303
118,shingu,33.7333,135.9833,6.92,40,5,0.84,JP,1676508410
119,luau,-10.7073,22.2247,18.06,97,100,1.74,AO,1676508411
120,akhtanizovskaya,45.32,37.1,-0.74,88,100,3.73,RU,1676508411
121,nhulunbuy,-12.2333,136.7667,30.34,79,75,4.63,AU,1676508412
122,zhanakorgan,43.9098,67.2495,-0.34,63,100,2.46,KZ,1676508413
123,chuy,-33.6971,-53.4616,19.31,62,0,3.14,UY,1676508144
124,pustoshka,56.3355,29.369,-0.06,99,100,0.86,RU,1676508414
125,nabire,-3.3667,135.4833,27.92,73,100,1.1,ID,1676508415
126,saint george,37.1041,-113.5841,5.33,37,20,6.17,US,1676508415
127,barrow,71.2906,-156.7887,-27.99,76,75,4.12,US,1676508416
128,vao,-22.6667,167.4833,24.07,62,45,4.0,NC,1676508416
129,kawalu,-7.3817,108.2082,24.18,83,100,0.32,ID,1676508279
130,isangel,-19.55,169.2667,27.41,66,100,5.48,VU,1676508417
131,ust-tsilma,65.441,52.1498,-9.52,91,100,3.13,RU,1676508417
132,ambilobe,-13.2,49.05,22.34,95,3,1.25,MG,1676508418
133,tucuman,-26.8241,-65.2226,27.0,78,75,1.03,AR,1676508385
134,chengde,40.9725,117.9361,-3.57,65,4,1.15,CN,1676508419
135,puerto ayora,-0.7393,-90.3518,26.97,91,17,3.13,EC,1676508146
136,kismayo,-0.3582,42.5454,24.43,81,68,8.13,SO,1676508419
137,lere,10.387,8.5726,17.08,27,4,5.35,NG,1676508420
138,da lat,11.9465,108.4419,15.59,72,95,3.58,VN,1676508420
139,kavieng,-2.5744,150.7967,28.05,74,85,2.9,PG,1676508313
140,weligama,5.9667,80.4167,20.72,85,38,3.76,LK,1676508421
141,araouane,18.9048,-3.5265,22.68,18,100,4.96,ML,1676508421
142,qaanaaq,77.484,-69.3632,-29.22,64,33,3.7,GL,1676508219
143,ketchikan,55.3422,-131.6461,4.26,93,100,7.2,US,1676508212
144,nyzhni sirohozy,46.8484,34.3804,-3.14,79,85,3.5,UA,1676508423
145,yuancheng,36.652,107.7896,-2.99,96,100,1.92,CN,1676508423
146,megion,61.0296,76.1136,-15.99,100,100,3.02,RU,1676508424
147,salisbury,51.0693,-1.7957,8.03,96,75,3.6,GB,1676508011
148,helong,42.5397,128.9972,-3.93,48,100,1.31,CN,1676508425
149,geraldton,-28.7667,114.6,23.23,60,4,6.69,AU,1676508426
150,rio gallegos,-51.6226,-69.2181,8.03,81,40,13.89,AR,1676508426
151,itoman,26.1247,127.6694,19.01,55,20,4.12,JP,1676508427
152,coihaique,-45.5752,-72.0662,9.34,49,0,2.57,CL,1676508427
153,monte alto,-21.2611,-48.4964,21.5,88,100,1.27,BR,1676508428
154,sao filipe,14.8961,-24.4956,21.13,73,0,5.65,CV,1676508168
155,longkou,37.6508,120.3286,0.56,44,0,4.41,CN,1676508429
156,chandur,19.7333,79.1833,19.01,29,0,1.15,IN,1676508430
157,cidreira,-30.1811,-50.2056,23.62,89,14,3.86,BR,1676508430
158,sistranda,63.7256,8.834,4.98,75,100,15.77,NO,1676508431
159,lompoc,34.6391,-120.4579,14.27,55,0,8.05,US,1676508431
160,tura,25.5198,90.2201,14.71,44,0,1.49,IN,1676508432
161,dunedin,-45.8742,170.5036,17.67,64,56,5.36,NZ,1676508432
162,nacala,-14.5428,40.6728,23.57,92,96,1.82,MZ,1676508433
163,airai,-8.9266,125.4092,18.37,84,90,1.17,TL,1676508433
164,tashtagol,52.7657,87.8894,-26.24,100,100,1.43,RU,1676508434
165,bredy,52.4153,60.3411,-12.52,98,100,2.15,RU,1676508435
166,komsomolskiy,40.4272,71.7189,2.4,100,100,2.06,UZ,1676508220
167,khasan,42.4308,130.6434,-7.14,57,100,1.21,RU,1676508435
168,stornoway,58.2093,-6.3865,2.74,86,39,3.09,GB,1676508436
169,yueyang,29.3333,113.0919,7.54,68,100,0.61,CN,1676508436
170,male,4.1748,73.5089,26.97,69,40,7.2,MV,1676508437
171,avera,33.194,-82.5271,17.17,71,100,1.95,US,1676508437
172,zhuanghe,39.7008,122.9911,-1.63,32,29,2.49,CN,1676508438
173,katsuura,35.1333,140.3,5.38,53,53,6.3,JP,1676508438
174,sergio osmena sr,8.1667,123.5,25.29,77,100,0.92,PH,1676508439
175,port blair,11.6667,92.75,26.02,73,40,1.54,IN,1676508440
176,mount gambier,-37.8333,140.7667,34.25,13,78,4.51,AU,1676508440
177,beringovskiy,63.05,179.3167,-26.44,96,100,6.46,RU,1676508441
178,lorengau,-2.0226,147.2712,27.81,75,100,1.65,PG,1676508268
179,gueret,46.1667,1.8667,3.12,82,0,1.55,FR,1676508441
180,phan thiet,10.9333,108.1,25.73,58,20,6.29,VN,1676508442
181,bengkulu,-3.8004,102.2655,24.52,86,100,1.7,ID,1676508161
182,gat,31.61,34.7642,9.11,100,40,1.71,IL,1676508443
183,hilo,19.7297,-155.09,26.27,83,100,5.14,US,1676508443
184,provideniya,64.3833,-173.3,-24.8,64,20,7.15,RU,1676508190
185,puerto baquerizo moreno,-0.9,-89.6,26.83,76,18,1.77,EC,1676508183
186,santa maria,-29.6842,-53.8069,23.61,94,0,3.6,BR,1676508445
187,totskoye,52.5248,52.7623,-0.88,96,100,5.5,RU,1676508445
188,kahului,20.8947,-156.47,26.58,65,0,7.72,US,1676508446
189,valparaiso,-33.0393,-71.6273,15.8,88,0,2.57,CL,1676508371
190,victoria,22.2855,114.1577,15.74,69,36,2.68,HK,1676508308
191,witu,-2.3889,40.4382,22.99,92,87,1.97,KE,1676508447
192,port-gentil,-0.7193,8.7815,26.41,81,100,4.12,GA,1676508447
193,berezovyy,51.6667,135.7,-17.07,77,2,0.8,RU,1676508448
194,sobolevo,54.4299,31.8996,-12.22,98,84,1.08,RU,1676508448
195,karonga,-9.9333,33.9333,22.64,84,100,1.64,MW,1676508449
196,esperance,-33.8667,121.9,19.85,59,40,0.99,AU,1676508449
197,grand-santi,4.25,-54.3833,22.87,99,100,1.28,GF,1676508450
198,pizarro,4.9533,-77.366,25.75,87,8,1.24,CO,1676508451
199,manaure,11.7751,-72.4445,25.29,76,6,9.23,CO,1676508451
200,hofn,64.2539,-15.2082,1.48,92,100,5.27,IS,1676508452
201,udachnyy,66.4167,112.4,-30.24,100,99,1.99,RU,1676508453
202,sibolga,1.7427,98.7792,24.75,81,100,1.46,ID,1676508453
203,maryborough,-25.5333,152.7,26.73,41,0,3.89,AU,1676508454
204,concepcion del uruguay,-32.4825,-58.2372,26.81,55,4,3.39,AR,1676508455
205,wakkanai,45.4094,141.6739,-6.01,58,75,9.26,JP,1676508455
206,college,64.8569,-147.8028,-18.29,75,75,2.57,US,1676508456
207,carutapera,-1.195,-46.02,24.72,90,100,2.1,BR,1676508456
208,severomorsk,69.0689,33.4162,-1.78,81,100,10.18,RU,1676508457
209,luderitz,-26.6481,15.1594,17.71,80,0,8.24,NA,1676508457
210,takapau,-40.0333,176.35,14.72,94,100,3.19,NZ,1676508458
211,shenjiamen,29.9576,122.298,7.03,62,3,3.55,CN,1676508458
212,torbay,47.6666,-52.7314,-3.8,93,40,5.14,CA,1676508459
213,jiamusi,46.8333,130.35,-15.25,80,39,3.64,CN,1676508459
214,cabo san lucas,22.8909,-109.9124,20.84,65,100,1.79,MX,1676508460
215,mecca,21.4267,39.8261,16.36,49,10,6.16,SA,1676508155
216,krasnovishersk,60.4078,57.082,-19.61,100,95,0.7,RU,1676508461
217,beckley,37.7782,-81.1882,16.23,58,0,3.09,US,1676508461
218,pahrump,36.2083,-115.9839,10.03,9,0,7.6,US,1676508462
219,itarema,-2.9248,-39.9167,25.64,85,94,3.91,BR,1676508462
220,jinchang,38.4953,102.1739,-5.13,57,6,2.4,CN,1676508463
221,porto novo,6.4965,2.6036,27.9,85,55,1.28,BJ,1676508463
222,jieshi,22.8134,115.8257,13.35,69,95,7.44,CN,1676508464
223,ravar,31.2656,56.8055,17.64,19,28,11.46,IR,1676508465
224,garowe,8.4054,48.4845,17.58,94,44,3.67,SO,1676508465
225,merauke,-8.4667,140.3333,28.27,74,100,7.0,ID,1676508466
226,datong,40.0936,113.2914,-6.39,81,6,0.32,CN,1676508466
227,bambous virieux,-20.3428,57.7575,23.45,76,12,2.15,MU,1676508239
228,kargasok,59.0556,80.8572,-21.63,100,98,1.75,RU,1676508467
229,cabinda,-5.55,12.2,25.64,84,99,1.42,AO,1676508467
230,andapa,-14.65,49.65,19.76,99,19,0.73,MG,1676508468
231,novodugino,55.6305,34.2842,-16.47,100,100,1.33,RU,1676508468
232,port huron,42.9709,-82.4249,9.02,64,0,7.72,US,1676508239
233,batangafo,7.3008,18.2833,20.66,26,16,1.88,CF,1676508470
234,gorey,52.6747,-6.2925,9.71,97,100,7.02,IE,1676508470
235,amuntai,-2.4177,115.2494,25.56,87,100,0.39,ID,1676508470
236,ilulissat,69.2167,-51.1,-13.99,51,75,10.29,GL,1676508154
237,tateyama,34.9833,139.8667,6.17,48,31,5.21,JP,1676508471
238,alta floresta,-9.8756,-56.0861,22.08,98,100,1.05,BR,1676508471
239,naze,28.3667,129.4833,14.51,67,65,5.9,JP,1676508472
240,fairbanks,64.8378,-147.7164,-17.88,76,75,2.57,US,1676508022
241,huarmey,-10.0681,-78.1522,23.88,82,100,2.22,PE,1676508473
242,guerrero negro,27.9769,-114.0611,13.98,54,100,7.95,MX,1676508381
243,adrar,20.5022,-10.0711,21.49,20,100,2.7,MR,1676508473
244,chicama,-7.8447,-79.1469,24.3,69,100,2.01,PE,1676508473
245,hitoyoshi,32.2167,130.75,2.9,35,0,0.57,JP,1676508474
246,hasaki,35.7333,140.8333,3.22,53,36,7.67,JP,1676508474
247,matagami,49.7502,-77.6328,-6.94,93,100,9.26,CA,1676508457
248,mao,39.8885,4.2658,10.31,100,75,2.57,ES,1676508296
249,zaykovo,57.5613,62.7568,-19.8,99,94,0.97,RU,1676508475
250,ossora,59.2353,163.0719,-14.44,69,100,4.53,RU,1676508476
251,tuatapere,-46.1333,167.6833,18.36,59,100,2.38,NZ,1676508140
252,rocha,-34.4833,-54.3333,16.46,59,0,3.33,UY,1676508477
253,ulaanbaatar,47.9077,106.8832,-27.93,69,35,1.0,MN,1676508236
254,new norfolk,-42.7826,147.0587,23.29,39,100,2.03,AU,1676508477
255,narsaq,60.9167,-46.05,-17.88,66,100,3.62,GL,1676508478
256,kirakira,-10.4544,161.9205,30.06,71,64,2.12,SB,1676508478
257,saskylakh,71.9167,114.0833,-17.31,97,100,3.02,RU,1676508479
258,vostryakovo,55.4006,37.8111,-3.99,74,75,4.0,RU,1676508479
259,sinnamary,5.3833,-52.95,24.78,91,100,5.09,GF,1676508480
260,ojinaga,29.5667,-104.4167,21.53,21,0,10.8,MX,1676508480
261,zhangye,38.9342,100.4517,-3.09,49,84,2.5,CN,1676508481
262,dasoguz,41.8363,59.9666,-0.03,64,100,6.17,TM,1676508482
263,xiongyue,40.1774,122.1228,-1.89,58,57,5.05,CN,1676508483
264,nikolskoye,59.7035,30.7861,0.94,96,100,2.72,RU,1676508217
265,samarai,-10.6167,150.6667,29.23,73,40,6.19,PG,1676508484
266,zhigansk,66.7697,123.3711,-37.31,100,100,3.29,RU,1676508240
267,arara,-6.8283,-35.7583,21.71,95,100,4.5,BR,1676508485
268,parfino,57.9731,31.6481,-8.45,96,98,2.36,RU,1676508486
269,labuan,5.2767,115.2417,26.2,89,20,1.03,MY,1676508486
270,bandarbeyla,9.4942,50.8122,24.27,67,77,5.02,SO,1676508487
271,emerald,-23.5333,148.1667,28.52,60,100,6.46,AU,1676508488
272,hambantota,6.1241,81.1185,19.19,100,0,2.06,LK,1676508488
273,thinadhoo,0.5333,72.9333,27.19,73,13,4.84,MV,1676508489
274,arlit,18.7369,7.3853,15.52,17,100,3.69,NE,1676508235
275,novyy urengoy,66.0833,76.6333,-16.95,96,100,3.95,RU,1676508490
276,caravelas,-17.7125,-39.2481,25.99,81,91,4.3,BR,1676508298
277,acapulco,16.8634,-99.8901,27.9,69,20,4.12,MX,1676508277
278,kiama,-34.6833,150.8667,30.14,61,90,4.47,AU,1676508491
279,bathsheba,13.2167,-59.5167,25.34,73,20,8.23,BB,1676508492
280,asaba,6.2006,6.7338,23.77,33,50,1.78,NG,1676508492
281,chapais,49.7834,-74.8492,1.88,99,100,3.55,CA,1676508493
282,port augusta,-32.5,137.7667,37.38,9,0,6.54,AU,1676508493
283,port lincoln,-34.7333,135.8667,31.96,25,5,8.08,AU,1676508303
284,henties bay,-22.116,14.2845,17.85,85,89,2.55,NA,1676508494
285,mana,5.6592,-53.7767,24.46,93,100,4.53,GF,1676508495
286,namatanai,-3.6667,152.4333,30.16,62,99,2.5,PG,1676508332
287,jagatsinghapur,20.2667,86.1667,18.2,88,0,1.87,IN,1676508496
288,lashio,22.9333,97.75,12.68,46,0,0.61,MM,1676508496
289,lensk,60.7253,114.9278,-19.75,100,91,2.61,RU,1676508497
290,tuktoyaktuk,69.4541,-133.0374,-34.0,68,20,4.63,CA,1676508497
291,poshekhonye,58.4993,39.1353,-18.14,100,91,1.91,RU,1676508498
292,kaitangata,-46.2817,169.8464,15.48,74,100,3.23,NZ,1676508499
293,coquimbo,-29.9533,-71.3436,16.85,94,20,3.6,CL,1676508500
294,leh,34.1667,77.5833,-13.87,79,93,1.57,IN,1676508500
295,bowling green,36.9903,-86.4436,18.96,75,0,3.09,US,1676508501
296,iisalmi,63.5592,27.1907,-0.56,91,100,4.04,FI,1676508501
297,baykit,61.67,96.37,-27.7,100,100,0.66,RU,1676508502
298,le port,-20.9373,55.2919,23.98,85,19,0.9,RE,1676508503
299,ocosingo,17.0667,-92.25,18.18,91,5,0.7,MX,1676508503
300,nadym,65.5333,72.5167,-14.36,87,100,6.47,RU,1676508505
301,vardo,70.3705,31.1107,-0.01,80,75,9.26,NO,1676508130
302,beruwala,6.4788,79.9828,22.75,86,57,2.08,LK,1676508505
303,olawa,50.9466,17.2926,1.64,70,88,1.59,PL,1676508506
304,boyolangu,-8.1181,111.8935,25.97,79,99,1.2,ID,1676508506
305,muros,42.7762,-9.0603,8.98,88,100,2.38,ES,1676508507
306,luangwa,-15.6167,30.4167,22.4,98,100,0.46,ZM,1676508508
307,mascota,20.5167,-104.7833,15.61,61,1,1.59,MX,1676508509
308,kpandae,8.4689,-0.0113,26.53,17,13,2.68,GH,1676508510
309,burla,21.5,83.8667,15.59,38,0,1.72,IN,1676508303
310,lagoa,39.05,-27.9833,14.57,72,83,4.29,PT,1676508511
311,tondano,1.3038,124.9112,23.05,80,100,0.9,ID,1676508511
312,el cobre,20.0489,-75.9469,25.69,61,40,4.12,CU,1676508512
313,fort nelson,58.8053,-122.7002,-13.23,76,75,1.03,CA,1676508180
314,svetlogorsk,52.6333,29.7333,-3.04,98,100,0.84,BY,1676508513
315,bignona,12.8103,-16.2264,23.02,48,98,1.89,SN,1676508513
316,vestmannaeyjar,63.4427,-20.2734,3.97,60,100,5.58,IS,1676508514
317,costinesti,43.95,28.6333,-0.42,72,1,4.57,RO,1676508514
318,port hedland,-20.3167,118.5667,36.03,44,3,0.51,AU,1676508515
319,glinka,54.6404,32.8781,-14.84,100,91,0.23,RU,1676508516
320,panshi,42.9422,126.0561,-11.26,77,100,1.68,CN,1676508516
321,bocholt,51.8333,6.6,7.66,64,3,4.01,DE,1676508517
322,leninskoye,41.7589,69.3864,4.38,93,100,1.58,KZ,1676508517
323,chifeng,42.2683,118.9636,-3.22,60,53,3.65,CN,1676508518
324,road town,18.4167,-64.6167,26.05,83,40,4.63,VG,1676508519
325,douentza,14.9951,-2.9517,21.98,19,99,3.36,ML,1676508519
326,palu,-0.8917,119.8707,28.19,74,98,0.57,ID,1676508520
327,presidente medici,-11.1753,-61.9014,23.5,97,99,1.89,BR,1676508520
328,anadyr,64.75,177.4833,-33.72,73,0,4.0,RU,1676508521
329,cairns,-16.9167,145.7667,26.15,94,100,3.09,AU,1676508521
330,nuristan,35.3,70.8333,-5.38,78,100,3.89,AF,1676508522
331,senno,59.5336,33.9167,-13.13,98,74,2.07,RU,1676508522
332,tacuarembo,-31.7333,-55.9833,23.97,48,3,1.48,UY,1676508523
333,warrington,53.3925,-2.5802,8.51,88,20,4.12,GB,1676508523
334,osmena,10.5208,119.9258,26.17,82,100,10.93,PH,1676508523
335,ayan,56.45,138.1667,-20.3,71,11,3.84,RU,1676508186
336,booue,-0.0921,11.9385,22.9,95,100,1.0,GA,1676508524
337,nouakchott,18.0858,-15.9785,19.96,47,92,6.75,MR,1676508525
338,zabol,32.25,67.25,8.09,41,79,1.94,AF,1676508525
339,xining,36.6167,101.7667,-8.43,79,89,1.14,CN,1676508173
340,karratha,-20.7377,116.8463,36.6,22,9,3.39,AU,1676508526
341,kyabram,-36.3167,145.05,33.82,19,100,4.48,AU,1676508526
342,novobiryusinskiy,56.9578,97.7076,-30.36,100,100,0.9,RU,1676508527
343,kurilsk,45.2333,147.8833,-7.94,65,100,10.18,RU,1676508527
344,independenta,45.4833,27.75,-0.28,78,7,2.82,RO,1676508528
345,marzuq,14.4,46.4667,15.01,18,4,2.74,YE,1676508320
346,balykshi,47.0667,51.8667,0.0,93,100,5.0,KZ,1676508529
347,khatanga,71.9667,102.5,-15.83,96,100,4.74,RU,1676508529
348,antalya,36.7741,30.7178,7.83,38,0,5.14,TR,1676508529
349,hailin,44.5833,129.4167,-14.51,79,96,1.0,CN,1676508530
350,smithers,54.7804,-127.1743,0.18,69,75,5.14,CA,1676508531
351,iwanai,42.9744,140.5089,-2.46,67,100,6.6,JP,1676508531
352,hovd,48.0056,91.6419,-18.66,91,28,0.5,MN,1676508532
353,ulyanovsk,54.0,48.0,-9.9,95,100,5.16,RU,1676508532
354,portland,45.5234,-122.6762,7.99,69,40,2.24,US,1676508255
355,georgetown,5.4112,100.3354,24.96,88,20,0.0,MY,1676508201
356,aksarka,66.5606,67.7975,-12.08,87,100,7.36,RU,1676508332
357,magadan,59.5667,150.8,-13.59,73,100,4.29,RU,1676508533
358,methven,-43.6333,171.65,17.79,73,100,0.89,NZ,1676508533
359,vila do maio,15.1333,-23.2167,20.44,80,3,9.21,CV,1676508534
360,atlantic city,39.3643,-74.4229,15.01,73,0,4.92,US,1676508359
361,vacaria,-28.5122,-50.9339,15.96,96,100,1.89,BR,1676508360
362,brae,60.3964,-1.353,5.68,72,100,10.95,GB,1676508535
363,galveston,29.3669,-94.9669,23.35,90,100,6.69,US,1676508372
364,saint-joseph,-21.3667,55.6167,22.21,79,44,3.97,RE,1676508536
365,uyuni,-20.4597,-66.825,11.95,66,80,3.03,BO,1676508436
366,wanaka,-44.7,169.15,20.62,45,46,1.34,NZ,1676508537
367,huejuquilla el alto,22.6,-103.8667,13.53,20,5,3.66,MX,1676508538
368,gornopravdinsk,60.05,69.9,-21.32,100,86,1.53,RU,1676508538
369,dubovyy umet,52.9763,50.2857,-9.26,97,100,2.73,RU,1676508539
370,kushima,31.4583,131.2333,9.02,62,9,1.77,JP,1676508539
371,maldonado,-34.6667,-54.9167,20.66,50,0,4.07,UY,1676508540
372,moron,-34.6534,-58.6198,27.2,49,2,2.83,AR,1676508540
373,mocuba,-16.8392,36.9856,21.68,91,98,2.5,MZ,1676508540
374,neuquen,-38.9516,-68.0591,25.94,25,0,7.72,AR,1676508542
375,roma,43.2128,-75.4557,14.93,50,40,2.06,US,1676508542
376,sitka,57.0531,-135.33,2.94,87,100,2.06,US,1676508543
377,batagay-alyta,67.8006,130.4114,-35.79,85,34,1.61,RU,1676508264
378,yulara,-25.2406,130.9889,35.34,22,5,4.29,AU,1676508146
379,bahia de caraquez,-0.6,-80.4167,27.1,86,91,1.76,EC,1676508545
380,souillac,-20.5167,57.5167,23.7,80,7,1.93,MU,1676508155
381,port hardy,50.6996,-127.4199,4.1,87,100,12.86,CA,1676508546
382,tiznit,29.5833,-9.5,9.1,87,100,1.61,MA,1676508547
383,jalu,29.0331,21.5482,12.59,57,85,4.11,LY,1676508548
384,lamu,-2.2717,40.902,24.32,87,98,4.45,KE,1676508549
385,touros,-5.1989,-35.4608,26.75,78,100,5.92,BR,1676508549
386,carnarvon,-24.8667,113.6333,24.43,63,0,7.9,AU,1676508550
387,honningsvag,70.9821,25.9704,0.86,80,83,7.72,NO,1676508551
388,esterhazy,50.65,-102.0843,-13.53,100,59,2.15,CA,1676508551
389,saint-augustin,51.226,-58.6502,-5.28,92,100,4.66,CA,1676508552
390,sola,-13.8833,167.55,25.31,88,100,8.49,VU,1676508552
391,laguna,38.421,-121.4238,15.16,23,0,5.66,US,1676508553
392,sueyoshi,31.65,131.0167,2.83,62,5,1.06,JP,1676508553
393,port keats,-14.25,129.55,30.76,69,100,3.65,AU,1676508554
394,leningradskiy,69.3833,178.4167,-33.45,97,98,3.52,RU,1676508186
395,eureka,40.8021,-124.1637,10.67,65,51,0.45,US,1676508555
396,tual,-5.6667,132.75,27.33,82,100,6.75,ID,1676508556
397,sangar,63.9242,127.4739,-38.77,98,56,1.58,RU,1676508557
398,yangjiang,21.85,111.9667,14.24,57,51,4.52,CN,1676508558
399,wanning,18.8003,110.3967,19.31,82,100,5.9,CN,1676508558
400,asau,46.4333,26.4,-0.4,92,37,2.2,RO,1676508559
401,malindi,-3.2175,40.1191,24.02,87,73,3.42,KE,1676508559
402,raton,36.9034,-104.4391,-11.66,67,100,7.2,US,1676508561
403,dingle,10.9995,122.6711,25.82,82,40,7.64,PH,1676508562
404,aswan,24.0934,32.907,10.61,50,0,0.0,EG,1676508562
405,borgarnes,64.5383,-21.9206,0.03,93,100,1.98,IS,1676508563
406,winnemucca,40.973,-117.7357,-0.45,49,0,2.05,US,1676508426
407,mollendo,-17.0231,-72.0147,23.66,87,67,1.15,PE,1676508564
408,lodja,-3.4833,23.4333,21.31,98,100,1.07,CD,1676508565
409,mansfield,53.1333,-1.2,7.39,94,100,0.89,GB,1676508565
410,tevriz,57.509,72.4042,-25.27,100,61,0.36,RU,1676508566
411,olafsvik,64.8945,-23.7142,2.67,65,58,6.29,IS,1676508339
412,kruisfontein,-34.0033,24.7314,19.38,91,59,2.46,ZA,1676508568
413,talara,-4.5772,-81.2719,26.42,73,75,4.12,PE,1676508569
414,nizwa,22.9333,57.5333,18.75,28,1,0.53,OM,1676508569
415,kurtamysh,54.9103,64.4319,-17.72,97,100,1.6,RU,1676508570
416,pirovskoye,57.6267,92.2658,-26.93,100,100,1.19,RU,1676508570
417,bilma,18.6853,12.9164,14.81,29,13,3.13,NE,1676508571
418,vila velha,-20.3297,-40.2925,26.97,84,0,4.63,BR,1676508572
419,puerto lempira,15.2667,-83.7667,25.08,83,20,4.12,HN,1676508572
420,carmen,18.6333,-91.8333,26.37,76,47,1.85,MX,1676508574
421,sibay,52.7181,58.6658,-14.65,97,100,2.71,RU,1676508574
422,rumphi,-11.0186,33.8575,18.27,98,100,0.93,MW,1676508575
423,benxi,41.2886,123.765,-6.82,21,100,2.41,CN,1676508576
424,paraiso,9.8383,-83.8656,19.48,98,73,1.78,CR,1676508576
425,ostrovnoy,68.0531,39.5131,-0.03,89,83,12.37,RU,1676508577
426,grand gaube,-20.0064,57.6608,23.54,76,2,1.34,MU,1676508577
427,batemans bay,-35.7167,150.1833,23.39,48,84,3.19,AU,1676508578
428,flin flon,54.7682,-101.865,-21.09,59,0,2.57,CA,1676508579
429,misratah,32.3754,15.0925,13.74,59,2,2.95,LY,1676508580
430,durban,-29.8579,31.0292,25.57,94,100,0.45,ZA,1676508581
431,benjamin constant,-4.3831,-70.0311,24.07,98,100,1.03,BR,1676508582
432,lexington park,38.2668,-76.4538,17.82,49,0,6.69,US,1676508435
433,chernyshevskiy,63.0128,112.4714,-31.56,100,84,1.39,RU,1676508582
434,iguatemi,-23.6803,-54.5611,22.3,84,100,1.52,BR,1676508583
435,daund,18.4667,74.6,19.88,26,0,2.34,IN,1676508584
436,oussouye,12.485,-16.5469,23.1,67,100,2.85,SN,1676508584
437,san cristobal,7.7669,-72.225,21.1,93,56,0.44,VE,1676508383
438,piltene,57.2243,21.6744,2.97,87,100,3.09,LV,1676508585
439,diffa,13.3154,12.6113,17.85,33,26,6.67,NE,1676508585
440,tessalit,20.1986,1.0114,18.67,18,100,7.14,ML,1676508586
441,yar-sale,66.8333,70.8333,-13.95,90,100,6.24,RU,1676508586
442,tefe,-3.3542,-64.7114,23.1,99,100,0.74,BR,1676508587
443,kaseda,31.4167,130.3167,7.85,57,2,2.3,JP,1676508587
444,galesong,-5.3166,119.3661,25.01,82,100,4.19,ID,1676508588
445,hervey bay,-25.2986,152.8535,26.68,68,0,4.02,AU,1676508588
446,manadhoo,5.7667,73.3833,26.43,63,100,3.94,MV,1676508589
447,sao joao da barra,-21.6403,-41.0511,26.05,96,100,6.83,BR,1676508589
448,meridian,43.6121,-116.3915,6.47,36,0,6.69,US,1676508590
449,sayyan,15.1718,44.3244,10.98,79,81,1.37,YE,1676508591
450,massakory,12.996,15.7293,18.24,19,0,8.08,TD,1676508591
451,plomarion,38.9767,26.3681,5.68,60,0,3.21,GR,1676508591
452,khanpur,28.6453,70.6567,18.57,24,7,2.49,PK,1676508592
453,jaisalmer,26.9147,70.9181,22.15,16,1,2.8,IN,1676508592
454,kantunilkin,21.0917,-87.45,23.85,77,0,2.63,MX,1676508593
455,manga,11.6636,-1.0731,24.05,16,3,5.92,BF,1676508594
456,weiser,44.251,-116.9693,8.11,60,11,0.74,US,1676508595
457,mayya,61.7333,130.2811,-42.05,99,68,0.64,RU,1676508595
458,vuktyl,63.8567,57.3094,-20.31,100,100,1.22,RU,1676508181
459,ndago,-4.6,34.35,16.93,69,7,2.3,TZ,1676508596
460,cayenne,4.9333,-52.3333,26.02,94,75,2.06,GF,1676508510
461,maniitsoq,65.4167,-52.9,-9.9,90,100,8.0,GL,1676508597
462,benalla,-36.55,145.9833,29.06,25,100,3.61,AU,1676508597
463,alofi,-19.0595,-169.9187,27.94,78,75,4.12,NU,1676508226
464,zhezkazgan,47.8043,67.7144,-18.88,100,100,3.35,KZ,1676508598
465,jati,24.3539,68.2671,20.38,68,54,3.65,PK,1676508599
466,axim,4.8699,-2.2405,26.13,87,25,2.27,GH,1676508600
467,bonthe,7.5264,-12.505,24.63,94,68,1.88,SL,1676508601
468,canton,23.1167,113.25,13.26,51,0,3.06,CN,1676508601
469,alice springs,-23.7,133.8833,32.75,40,0,2.57,AU,1676508602
470,christchurch,-43.5333,172.6333,21.06,62,75,9.26,NZ,1676508307
471,pangody,65.85,74.4859,-17.3,95,100,4.77,RU,1676508604
472,seminole,28.7086,-81.2081,23.2,81,0,3.6,US,1676508405
473,salinopolis,-0.6136,-47.3561,25.16,89,100,3.23,BR,1676508605
474,carahue,-38.7,-73.1667,11.89,88,19,2.09,CL,1676508606
475,qandala,11.472,49.8728,23.34,62,0,3.09,SO,1676508607
476,soteapan,18.2333,-94.8667,21.07,77,0,1.33,MX,1676508608
477,cam ranh,11.9214,109.1591,24.98,73,40,8.23,VN,1676508339
478,lumphat,13.4878,106.9816,25.16,56,1,4.47,KH,1676508609
479,bekovo,52.4663,43.712,-13.6,97,86,3.49,RU,1676508609
480,severnyy,50.677,36.5532,-4.98,80,75,4.0,RU,1676508610
481,korgen,66.0771,13.8153,3.07,85,100,3.87,NO,1676508611
482,korla,41.7597,86.1469,-0.27,52,100,1.56,CN,1676508612
483,salalah,17.0151,54.0924,23.05,73,75,1.54,OM,1676508245
484,kuminskiy,58.6667,66.5667,-20.99,100,44,1.55,RU,1676508612
485,pevek,69.7008,170.3133,-40.17,98,73,1.35,RU,1676508613
486,joensuu,62.6012,29.7632,-0.73,100,100,5.14,FI,1676508613
487,raudeberg,61.9875,5.1352,6.37,50,100,14.55,NO,1676508614
488,bodden town,19.2833,-81.25,26.11,89,20,4.63,KY,1676508615
489,awjilah,29.1081,21.2869,13.08,54,92,4.36,LY,1676508616
490,hay river,60.8156,-115.7999,-27.01,69,20,4.12,CA,1676508616
491,santo amaro,-12.5467,-38.7119,23.62,88,19,2.33,BR,1676508617
492,san patricio,28.017,-97.5169,25.1,90,100,5.85,US,1676508618
493,namibe,-15.1961,12.1522,22.99,75,100,2.7,AO,1676508305
494,imbituba,-28.24,-48.6703,23.45,88,100,2.12,BR,1676508619
495,trairi,-3.2778,-39.2689,25.55,86,100,3.18,BR,1676508389
496,gagino,55.2314,45.0339,-9.96,96,94,3.85,RU,1676508619
497,elbistan,38.2059,37.1983,-9.46,95,98,0.41,TR,1676508620
498,mawlamyine,16.4914,97.6256,24.03,61,0,2.09,MM,1676508621
499,komsomolets,53.7453,62.0708,-14.84,98,99,2.21,KZ,1676508622
500,kupang,-10.1667,123.5833,27.32,89,40,2.06,ID,1676508283
501,vanderhoof,54.0166,-124.0198,-1.0,90,100,1.99,CA,1676508623
502,canas,10.4294,-85.0931,23.66,93,7,6.27,CR,1676508623
503,taoudenni,22.6783,-3.9836,22.39,20,52,4.73,ML,1676508624
504,fortuna,40.5982,-124.1573,10.52,57,0,0.45,US,1676508624
505,half moon bay,37.4636,-122.4286,14.39,38,0,5.66,US,1676508329
506,ferkessedougou,9.6,-5.2,24.32,17,1,2.33,CI,1676508625
507,havre-saint-pierre,50.2334,-63.5986,-1.0,93,20,4.12,CA,1676508626
508,mandasa,18.8667,84.4667,19.0,53,0,1.36,IN,1676508627
509,kashi,39.4547,75.9797,0.56,80,100,2.0,CN,1676508627
510,bonavista,48.6499,-53.1147,-4.03,78,16,4.74,CA,1676508628
511,saint-louis,16.3333,-15.0,27.8,32,7,4.74,SN,1676508628
512,abha,18.2164,42.5053,12.9,43,0,0.0,SA,1676508630
513,porto torres,40.835,8.3972,4.1,79,79,0.94,IT,1676508630
514,petropavlovsk-kamchatskiy,53.0452,158.6483,-3.67,46,46,12.0,RU,1676508631
515,pemangkat,1.1667,108.9667,25.62,82,41,3.1,ID,1676508632
516,farmington,36.7281,-108.2187,-4.89,89,0,7.72,US,1676508538
517,baruun-urt,46.6806,113.2792,-15.55,89,18,2.68,MN,1676508633
518,umm kaddadah,13.6017,26.6876,14.5,22,0,9.07,SD,1676508633
519,puerto ayacucho,5.6639,-67.6236,24.19,89,68,1.24,VE,1676508634
520,usinsk,65.9939,57.5281,-12.5,93,100,8.01,RU,1676508635
521,basoko,1.2391,23.616,21.55,46,96,0.75,CD,1676508333
522,iskateley,67.6803,53.1512,-4.47,95,100,9.47,RU,1676508635
523,milkovo,54.7167,158.6167,-10.06,82,100,5.66,RU,1676508636
524,puerto escondido,15.85,-97.0667,27.46,74,40,3.6,MX,1676508637
525,bam,29.106,58.357,15.88,23,100,2.76,IR,1676508637
526,kartaly,53.0522,60.6467,-15.42,100,100,1.65,RU,1676508638
527,trebinje,42.7119,18.3442,3.2,87,0,3.09,BA,1676508638
528,dolores,-36.3132,-57.6792,19.0,55,17,6.0,AR,1676508639
529,grafton,42.207,-71.6856,12.12,72,0,7.72,US,1676508639
530,banda aceh,5.5577,95.3222,25.63,83,25,4.69,ID,1676508640
531,outjo,-20.1167,16.15,16.88,40,10,3.67,NA,1676508641
532,san juan del sur,11.2529,-85.8705,27.05,68,5,9.31,NI,1676508641
533,kiruna,67.8557,20.2251,-3.49,93,100,5.14,SE,1676508642
534,iki-burul,45.8208,44.6472,-9.94,96,47,3.58,RU,1676508642
535,sabang,5.8933,95.3214,27.64,74,20,8.79,ID,1676508643
536,bud,39.447,-86.1758,14.97,67,61,2.5,US,1676508643
537,graaff-reinet,-32.2522,24.5308,17.18,92,100,3.82,ZA,1676508644
538,san policarpo,12.1791,125.5072,25.63,83,100,9.81,PH,1676508644
539,birao,10.2849,22.7882,20.27,19,0,5.49,CF,1676508645
540,nyurba,63.2842,118.3319,-33.35,100,100,1.35,RU,1676508645
541,palauig,15.435,119.9045,27.02,59,60,1.64,PH,1676508646
542,sacapulas,15.2867,-91.0872,29.8,80,0,1.67,GT,1676508646
543,ucluelet,48.9329,-125.5528,5.05,90,100,5.08,CA,1676508647
544,kieta,-6.2167,155.6333,29.9,68,36,2.23,PG,1676508647
545,tumbagaan,5.3656,120.3139,26.16,83,91,3.73,PH,1676508648
546,roald,62.5833,6.1333,7.96,87,40,6.17,NO,1676508649
547,tagbac,7.089,125.1567,24.33,75,100,1.25,PH,1676508650
548,kodinsk,58.6881,99.1844,-27.26,100,100,0.82,RU,1676508651
549,nadvoitsy,63.8667,34.3167,-2.8,94,100,4.67,RU,1676508651
550,grindavik,63.8424,-22.4338,-0.03,100,75,3.6,IS,1676508652
551,egvekinot,66.3167,-179.1667,-28.53,87,11,2.44,RU,1676508652
552,sao jose da coroa grande,-8.8978,-35.1478,26.37,80,100,3.55,BR,1676508653
553,pauini,-7.7136,-66.9764,22.81,98,100,0.95,BR,1676508653
554,barcelos,41.5388,-8.6151,12.73,77,5,2.01,PT,1676508654
555,bundaberg,-24.85,152.35,28.45,67,0,1.34,AU,1676508654
556,waipawa,-41.4122,175.5153,12.88,92,100,7.52,NZ,1676508655
557,conde,-7.2597,-34.9075,27.7,78,20,4.12,BR,1676508655
558,cap malheureux,-19.9842,57.6142,23.59,76,2,1.34,MU,1676508656
559,manzhouli,49.6,117.4333,-16.23,96,100,2.77,CN,1676508657
560,dourbali,11.8091,15.8632,18.43,19,0,7.5,TD,1676508657
561,ranong,9.9658,98.6348,23.96,77,70,2.84,TH,1676508647
562,griffith,41.5284,-87.4237,4.61,75,100,4.12,US,1676508658
563,puntarenas,9.9763,-84.8384,26.6,69,1,1.82,CR,1676508658
564,klaksvik,62.2266,-6.589,5.51,68,78,15.19,FO,1676508659
565,cockburn town,21.4612,-71.1419,24.94,77,7,10.81,TC,1676508659
566,emba,48.8264,58.1442,-6.16,92,100,4.29,KZ,1676508660
567,mahibadhoo,3.7833,72.9667,27.17,60,93,7.69,MV,1676508660
568,villaviciosa,43.4813,-5.4357,12.79,88,6,2.14,ES,1676508661
569,ngunguru,-35.6167,174.5,21.02,72,39,2.01,NZ,1676508662
570,vaitape,-16.5167,-151.75,27.69,74,21,4.51,PF,1676508663
571,xingtai,37.0631,114.4942,2.79,50,5,0.27,CN,1676508663
572,badarpur,24.9,92.6,14.58,44,0,0.65,IN,1676508664
573,marsh harbour,26.5412,-77.0636,23.32,64,45,6.92,BS,1676508491
574,lasa,46.6166,10.7002,4.49,40,73,0.92,IT,1676508665
575,den helder,52.9599,4.7593,7.99,83,100,7.15,NL,1676508665
576,carballo,43.213,-8.691,10.84,88,100,1.1,ES,1676508666
