City_ID,City,Lat,Lng,Max Temp,Humidity,Cloudiness,Wind Speed,Country,Date
0,yerbogachen,61.2767,108.0108,-16.113999999999983,100,99,0.88,RU,1675609348
1,visnes,59.3556,5.2242,45.21200000000006,81,40,2.06,NO,1675609349
2,alofi,-19.0595,-169.9187,76.892,94,100,1.03,NU,1675609350
3,vaini,-21.2,-175.2,79.34000000000002,78,44,3.99,TO,1675609350
4,lagoa,39.05,-27.9833,59.378000000000064,83,69,9.55,PT,1675609353
5,rikitea,-23.1203,-134.9692,78.42200000000004,76,4,7.0,PF,1675609355
6,souillac,-20.5167,57.5167,82.77800000000006,78,40,3.09,MU,1675609356
7,airai,-8.9266,125.4092,60.8,93,100,0.78,TL,1675609357
8,luderitz,-26.6481,15.1594,72.08600000000007,65,3,13.52,NA,1675609357
9,provideniya,64.3833,-173.3,0.9320000000000164,96,100,4.15,RU,1675609358
10,ushuaia,-54.8,-68.3,44.22200000000004,81,100,14.4,AR,1675609283
11,mataura,-46.1927,168.8643,58.24400000000007,78,100,2.51,NZ,1675609358
12,sakakah,29.9697,40.2064,63.96800000000009,29,95,2.87,SA,1675609359
13,bredasdorp,-34.5322,20.0403,76.01000000000008,62,88,6.73,ZA,1675609361
14,albany,42.6001,-73.9662,30.812000000000058,60,100,2.24,US,1675609201
15,evensk,61.95,159.2333,-16.00599999999998,78,21,3.73,RU,1675609362
16,butaritari,3.0707,172.7902,80.40200000000007,82,77,8.15,KI,1675609362
17,grand baie,-20.0182,57.5802,82.86800000000008,76,65,2.24,MU,1675609064
18,makakilo city,21.3469,-158.0858,72.01400000000004,84,20,2.06,US,1675609363
19,punta arenas,-53.15,-70.9167,50.108000000000004,53,0,17.49,CL,1675609163
20,ola,59.5833,151.2833,-15.501999999999974,87,56,3.95,RU,1675609364
21,kampot,10.6167,104.1833,73.45400000000005,72,41,0.85,KH,1675609365
22,cape town,-33.9258,18.4232,79.12400000000001,70,40,10.29,ZA,1675609223
23,rawson,-43.3002,-65.1023,87.18800000000005,23,7,10.96,AR,1675609305
24,saurimo,-9.6608,20.3916,65.67800000000007,91,89,3.39,AO,1675609365
25,erenhot,43.6475,111.9767,16.7,51,23,1.39,CN,1675609366
26,zhigansk,66.7697,123.3711,-45.61599999999996,98,97,1.52,RU,1675609366
27,khatanga,71.9667,102.5,-24.789999999999964,92,100,2.45,RU,1675609366
28,hamilton,39.1834,-84.5333,45.98600000000007,58,0,6.69,US,1675609104
29,saint-philippe,-21.3585,55.7679,81.98600000000008,85,80,4.69,RE,1675609367
30,novyy urgal,51.0736,132.5642,-22.719999999999956,100,85,0.72,RU,1675609367
31,parfenyevo,58.484,43.4088,22.298000000000023,97,100,1.38,RU,1675609369
32,kirando,-7.4167,30.6,77.70200000000008,69,83,1.5,TZ,1675609369
33,phonhong,18.5007,102.4166,73.43600000000006,81,78,1.39,LA,1675609370
34,thompson,55.7435,-97.8558,-9.237999999999943,84,100,1.03,CA,1675609370
35,bluff,-46.6,168.3333,60.944000000000074,70,99,8.55,NZ,1675609370
36,cherskiy,68.75,161.3,-41.76399999999998,100,100,2.11,RU,1675609371
37,busselton,-33.65,115.3333,65.73200000000001,88,3,7.4,AU,1675609371
38,guerrero negro,27.9769,-114.0611,56.78600000000007,86,0,4.14,MX,1675609372
39,saldanha,-33.0117,17.9442,78.85400000000006,79,45,8.88,ZA,1675609372
40,port alfred,-33.5906,26.891,78.18800000000005,81,6,2.68,ZA,1675609372
41,hohhot,40.8106,111.6522,28.688000000000045,46,0,1.0,CN,1675609373
42,san pedro,14.35,121.0167,79.82600000000009,77,75,3.09,PH,1675609373
43,dikson,73.5069,80.5464,-5.691999999999943,97,100,1.28,RU,1675609374
44,sao filipe,14.8961,-24.4956,73.68800000000005,55,5,4.47,CV,1675609374
45,margate,51.3813,1.3862,47.89400000000008,72,100,4.92,GB,1675609375
46,xinmin,41.9908,122.8253,23.9,56,78,3.77,CN,1675609375
47,hobart,-42.8794,147.3294,58.85600000000003,77,92,4.63,AU,1675609239
48,bathsheba,13.2167,-59.5167,83.01200000000006,65,75,10.29,BB,1675609376
49,hay river,60.8156,-115.7999,-0.41799999999998505,78,100,4.63,CA,1675609376
50,atlantis,-33.5667,18.4834,72.17600000000009,60,35,7.93,ZA,1675609376
51,katsuura,35.1333,140.3,48.90200000000008,79,30,1.47,JP,1675609057
52,talnakh,69.4865,88.3972,7.214000000000034,96,100,1.94,RU,1675609377
53,nabire,-3.3667,135.4833,76.08200000000002,93,100,1.46,ID,1675609377
54,hermanus,-34.4187,19.2345,67.80200000000008,81,100,3.71,ZA,1675609378
55,bethel,41.3712,-73.414,37.49000000000002,54,0,6.69,US,1675609378
56,new norfolk,-42.7826,147.0587,58.49600000000005,63,92,0.89,AU,1675609378
57,puerto ayora,-0.7393,-90.3518,84.16400000000003,91,64,4.02,EC,1675609379
58,sinnamary,5.3833,-52.95,77.50400000000005,88,100,6.37,GF,1675609379
59,tasiilaq,65.6145,-37.6368,30.36200000000006,81,100,9.91,GL,1675609380
60,young,-32.6833,-57.6333,84.75800000000001,22,0,2.57,UY,1675609380
61,oktyabrskoye,43.0645,44.7417,26.744000000000074,92,100,3.0,RU,1675609381
62,nizhniy kuranakh,58.8353,125.4869,-16.185999999999964,100,100,1.08,RU,1675609381
63,jamestown,42.097,-79.2353,41.018000000000086,42,0,6.69,US,1675609203
64,arcata,40.8665,-124.0828,47.62400000000001,94,100,3.09,US,1675609382
65,torbay,47.6666,-52.7314,24.583999999999993,75,28,7.6,CA,1675609382
66,lazaro cardenas,17.9583,-102.2,76.98200000000001,51,0,1.33,MX,1675609383
67,san luis,-33.295,-66.3356,84.50600000000003,27,0,7.36,AR,1675609383
68,taltal,-25.4,-70.4833,74.15600000000003,69,0,2.15,CL,1675609384
69,pangai,-19.8,-174.35,79.68200000000002,81,100,9.84,TO,1675609384
70,carnarvon,-24.8667,113.6333,77.72000000000006,76,3,8.12,AU,1675609385
71,kaya,13.0917,-1.0844,97.55600000000003,8,67,4.34,BF,1675609386
72,hithadhoo,-0.6,73.0833,81.10400000000006,70,47,5.12,MV,1675609321
73,banda aceh,5.5577,95.3222,78.692,79,96,1.37,ID,1675609387
74,te anau,-45.4167,167.7167,56.26400000000003,92,100,4.71,NZ,1675609387
75,lenoir,35.2335,-77.6497,47.13800000000005,62,75,0.0,US,1675609388
76,ambon,-3.6954,128.1814,75.34400000000008,94,75,1.54,ID,1675609389
77,karachi,24.9056,67.0822,73.22000000000006,73,20,6.17,PK,1675609309
78,christchurch,-43.5333,172.6333,68.19800000000002,53,0,3.09,NZ,1675609198
79,praia da vitoria,38.7333,-27.0667,64.76000000000008,72,20,7.46,PT,1675609391
80,kruisfontein,-34.0033,24.7314,80.88800000000005,66,4,9.94,ZA,1675609393
81,arraial do cabo,-22.9661,-42.0278,89.56400000000004,58,0,3.6,BR,1675609395
82,omboue,-1.5746,9.2618,82.74199999999999,75,95,3.58,GA,1675609396
83,mar del plata,-38.0023,-57.5575,79.95200000000008,55,0,6.71,AR,1675609326
84,muisne,0.6,-80.0333,80.74400000000007,73,43,2.79,EC,1675609399
85,sisimiut,66.9395,-53.6735,-2.0739999999999625,94,100,4.27,GL,1675609399
86,east london,-33.0153,27.9116,85.13600000000007,70,0,6.69,ZA,1675609269
87,takoradi,4.8845,-1.7554,86.09000000000002,67,93,5.76,GH,1675609401
88,hilo,19.7297,-155.09,71.61800000000008,92,100,2.57,US,1675609402
89,beyneu,45.3167,55.2,35.81600000000001,69,100,0.9,KZ,1675609402
90,haileybury,47.449,-79.6373,14.57600000000009,95,100,1.46,CA,1675609403
91,lebu,-37.6167,-73.65,66.07400000000001,75,33,6.53,CL,1675609404
92,clyde river,70.4692,-68.5914,-14.56599999999996,64,100,5.66,CA,1675609405
93,balabac,7.9868,117.0645,79.91600000000001,84,100,7.11,PH,1675609405
94,harper,4.375,-7.7169,83.60600000000002,73,100,4.46,LR,1675609406
95,itaituba,-4.2761,-55.9836,80.76200000000006,89,75,3.09,BR,1675609407
96,tukrah,32.5341,20.5791,55.562000000000054,54,94,13.91,LY,1675609409
97,atasu,48.6814,71.6433,15.656000000000027,97,97,2.22,KZ,1675609409
98,talara,-4.5772,-81.2719,84.95600000000003,51,0,5.14,PE,1675609410
99,quatre cocos,-20.2078,57.7625,82.50800000000001,79,65,5.06,MU,1675609411
100,castro,-24.7911,-50.0119,75.83000000000004,59,72,3.88,BR,1675609412
101,hoskote,13.0669,77.7983,75.21800000000009,38,43,5.14,IN,1675609412
102,luanda,-8.8368,13.2343,84.2,74,40,5.66,AO,1675609413
103,najran,17.4924,44.1277,79.44800000000002,24,100,5.42,SA,1675609413
104,dingle,10.9995,122.6711,74.67800000000007,91,100,3.34,PH,1675609413
105,port elizabeth,-33.918,25.5701,87.09800000000003,84,40,10.29,ZA,1675609233
106,beckley,37.7782,-81.1882,45.44600000000005,42,0,4.92,US,1675609414
107,ust-uda,54.1742,103.0304,-9.219999999999956,100,100,0.33,RU,1675609414
108,klyuchi,52.2667,79.1667,4.550000000000001,99,92,1.87,RU,1675609415
109,consuegra,39.4625,-3.608,57.90200000000008,24,1,2.66,ES,1675609415
110,hofn,64.2539,-15.2082,44.61800000000009,93,100,11.32,IS,1675609408
111,oussouye,12.485,-16.5469,89.78000000000004,14,94,2.77,SN,1675609416
112,mahebourg,-20.4081,57.7,82.68800000000005,78,40,3.09,MU,1675609416
113,saskylakh,71.9167,114.0833,-38.37999999999994,100,100,1.83,RU,1675609417
114,georgetown,5.4112,100.3354,75.14600000000004,94,40,2.06,MY,1675609202
115,egvekinot,66.3167,-179.1667,-21.549999999999955,87,100,5.11,RU,1675609417
116,katherine,-14.4667,132.2667,73.72400000000002,83,11,2.06,AU,1675609418
117,ohara,35.25,140.3833,48.092,80,48,1.5,JP,1675609418
118,yulara,-25.2406,130.9889,73.25600000000003,21,0,4.4,AU,1675609419
119,kaitangata,-46.2817,169.8464,57.2,96,100,2.25,NZ,1675609419
120,leshukonskoye,64.8989,45.7622,-1.2999999999999474,99,96,1.93,RU,1675609420
121,daru,-9.0763,143.2092,77.09000000000002,90,100,1.7,PG,1675609420
122,portland,45.5234,-122.6762,46.32800000000007,95,100,4.47,US,1675609162
123,san isidro,-12.1167,-77.05,76.58600000000007,69,19,5.14,PE,1675609332
124,nikolskoye,59.7035,30.7861,20.804000000000052,86,100,3.11,RU,1675609421
125,south lake tahoe,38.9332,-119.9844,27.86000000000008,91,99,4.02,US,1675609206
126,yellowknife,62.456,-114.3525,-21.477999999999966,76,75,3.09,CA,1675609238
127,medicine hat,50.0501,-110.6683,31.712000000000057,82,40,3.09,CA,1675609321
128,nemuro,43.3236,145.575,22.928000000000065,77,22,4.3,JP,1675609422
129,ponta do sol,32.6667,-17.1,67.71200000000006,52,26,1.29,PT,1675609422
130,tigzirt,36.8886,4.1198,55.45400000000005,75,76,3.97,DZ,1675609422
131,kavieng,-2.5744,150.7967,81.87800000000007,73,100,1.11,PG,1675609423
132,saint-ambroise,48.5501,-71.3324,7.340000000000021,78,100,0.51,CA,1675609423
133,brae,60.3964,-1.353,45.104000000000056,80,100,8.63,GB,1675609424
134,manakara,-22.1333,48.0167,76.04600000000005,87,100,2.38,MG,1675609424
135,abu samrah,35.3029,37.1841,42.8,92,100,2.86,SY,1675609425
136,nouadhibou,20.931,-17.0347,73.38200000000002,25,100,8.23,MR,1675609425
137,bengkulu,-3.8004,102.2655,76.13600000000007,88,100,3.24,ID,1675609426
138,tocopilla,-22.092,-70.1979,75.41600000000001,73,0,2.06,CL,1675609426
139,robertsport,6.7533,-11.3686,81.89600000000004,75,62,6.03,LR,1675609426
140,makokou,0.5738,12.8642,86.99000000000002,47,88,0.39,GA,1675609427
141,padang,-0.9492,100.3543,71.65400000000005,83,100,1.85,ID,1675609229
142,kutum,14.2,24.6667,85.51400000000004,6,66,1.42,SD,1675609427
143,kharp,66.8014,65.8081,2.3180000000000867,92,87,3.29,RU,1675609427
144,rio tercero,-32.173,-64.1141,83.80400000000006,41,0,4.74,AR,1675609428
145,wajir,1.7471,40.0573,98.56400000000004,22,20,3.09,KE,1675609363
146,hasaki,35.7333,140.8333,35.99600000000005,75,79,4.57,JP,1675609429
147,vila velha,-20.3297,-40.2925,93.14600000000004,63,0,6.69,BR,1675609246
148,beringovskiy,63.05,179.3167,-19.713999999999984,94,99,5.23,RU,1675609429
149,ketchikan,55.3422,-131.6461,40.98200000000001,79,98,3.15,US,1675609315
150,denpasar,-8.65,115.2167,76.71200000000006,100,75,10.29,ID,1675609430
151,atuona,-9.8,-139.0333,78.33200000000002,75,5,8.06,PF,1675609430
152,esperance,-33.8667,121.9,69.35,64,44,9.16,AU,1675609431
153,la ronge,55.1001,-105.2842,23.252000000000077,86,100,3.6,CA,1675609235
154,tuktoyaktuk,69.4541,-133.0374,-47.19999999999996,66,0,1.54,CA,1675609431
155,ilek,51.5271,53.3831,8.726000000000091,92,100,2.44,RU,1675609431
156,sao felix do xingu,-6.6447,-51.995,85.80200000000008,65,100,0.56,BR,1675609432
157,mitu,1.1983,-70.1733,71.74400000000007,98,100,0.86,CO,1675609432
158,kasangulu,-4.5911,15.1708,86.93600000000006,70,68,2.71,CD,1675609433
159,namatanai,-3.6667,152.4333,78.06200000000005,81,99,1.37,PG,1675609433
160,klaksvik,62.2266,-6.589,45.518000000000086,88,100,15.53,FO,1675609434
161,norman wells,65.282,-126.8329,-21.963999999999984,83,40,1.03,CA,1675609434
162,kushmurun,52.4503,64.6311,9.212000000000057,96,96,2.92,KZ,1675609434
163,juneau,58.3019,-134.4197,34.214000000000034,94,100,4.12,US,1675609228
164,sinnar,13.5691,33.5672,93.61400000000003,13,72,6.7,SD,1675609435
165,adre,13.4667,22.2,92.53399999999999,7,42,3.0,TD,1675609435
166,byron bay,-28.65,153.6167,67.94600000000005,71,59,1.81,AU,1675608983
167,batagay,67.6333,134.6333,-36.23799999999994,100,99,0.88,RU,1675609436
168,khartoum,15.5518,32.5324,92.01200000000006,17,24,5.17,SD,1675609436
169,bandundu,-3.3167,17.3667,91.34600000000005,43,84,1.43,CD,1675609436
170,okato,-39.2,173.8833,66.18200000000002,69,96,4.02,NZ,1675609437
171,athabasca,54.7169,-113.2854,27.01400000000003,90,81,2.3,CA,1675609378
172,turbat,26.0023,63.044,75.68600000000006,38,0,6.48,PK,1675609438
173,severo-kurilsk,50.6789,156.125,24.92600000000009,78,96,3.53,RU,1675609438
174,aden,12.7794,45.0367,76.01000000000008,69,61,3.16,YE,1675609278
175,saint george,37.1041,-113.5841,34.39400000000008,75,0,1.54,US,1675609244
176,aberfeldy,56.62,-3.8645,41.48600000000007,79,98,1.39,GB,1675609439
177,jalu,29.0331,21.5482,63.608000000000004,46,93,9.03,LY,1675609439
178,olafsvik,64.8945,-23.7142,42.11600000000001,90,88,10.2,IS,1675609440
179,kazanskoye,55.6448,69.235,-1.1919999999999433,99,100,1.83,RU,1675609440
180,upernavik,72.7868,-56.1549,-16.437999999999946,98,98,2.31,GL,1675609441
181,tuatapere,-46.1333,167.6833,56.768000000000086,92,98,3.9,NZ,1675609442
182,vardo,70.3705,31.1107,21.182000000000016,93,100,5.14,NO,1675609399
183,palmer,42.1584,-72.3287,38.24600000000005,51,75,8.23,US,1675609442
184,balkhash,46.844,74.9804,9.80600000000003,98,30,2.19,KZ,1675609443
185,ayabe,35.3,135.25,37.47200000000004,95,5,1.35,JP,1675609444
186,mount gambier,-37.8333,140.7667,52.43000000000004,93,37,1.66,AU,1675609444
187,ak-dovurak,51.1833,90.6,3.938000000000045,98,97,0.86,RU,1675609445
188,asau,46.4333,26.4,24.278000000000066,76,94,3.65,RO,1675609445
189,kapaa,22.0752,-159.319,73.72400000000002,90,100,6.69,US,1675609445
190,hervey bay,-25.2986,152.8535,78.11600000000001,89,100,5.0,AU,1675609446
191,nueve de julio,-35.4444,-60.8831,85.82000000000006,48,0,2.24,AR,1675609448
192,bubaque,11.2833,-15.8333,78.674,52,22,3.97,GW,1675609448
193,alyangula,-13.8483,136.4192,81.05,65,61,2.08,AU,1675609448
194,ronneby,56.21,15.276,34.30400000000005,75,0,3.09,SE,1675609449
195,faya,18.3851,42.4509,68.108,51,98,3.24,SA,1675609450
196,isangel,-19.55,169.2667,80.31200000000005,85,100,2.63,VU,1675609451
197,krasnyy luch,48.1395,38.9371,28.18399999999999,77,100,3.97,UA,1675609452
198,kirakira,-10.4544,161.9205,78.20600000000003,93,100,3.19,SB,1675609453
199,cabo san lucas,22.8909,-109.9124,69.51200000000006,53,0,2.06,MX,1675609454
200,praia,14.9215,-23.5087,77.54000000000002,47,20,9.26,CV,1675609455
201,laval,45.57,-73.692,23.108000000000004,78,100,4.12,CA,1675609192
202,barrow,71.2906,-156.7887,-18.381999999999962,76,100,2.57,US,1675609453
203,anakapalle,17.6833,83.0167,73.34600000000005,77,1,0.76,IN,1675609457
204,port blair,11.6667,92.75,82.43600000000006,78,40,1.03,IN,1675609245
205,pio xii,-3.8325,-45.1525,85.80200000000008,65,100,1.9,BR,1675609462
206,san rafael,-34.6177,-68.3301,89.29400000000007,17,3,5.46,AR,1675609464
207,ribeira grande,38.5167,-28.7,62.99600000000005,82,40,6.71,PT,1675609383
208,santa cruz,-17.8,-63.1667,77.05400000000006,83,75,5.14,BO,1675609465
209,northeim,51.7,10.0,40.87400000000001,88,100,0.16,DE,1675609466
210,road town,18.4167,-64.6167,82.49000000000002,78,40,6.17,VG,1675609467
211,chokurdakh,70.6333,147.9167,-36.27399999999996,100,97,1.85,RU,1675609467
212,ambilobe,-13.2,49.05,77.03600000000007,90,100,0.96,MG,1675609468
213,west bay,19.3667,-81.4167,82.07600000000009,77,20,2.57,KY,1675609468
214,sarangani,5.4033,125.4636,81.51800000000009,76,100,6.48,PH,1675609470
215,taitung,22.7583,121.1444,68.27000000000007,100,75,2.57,TW,1675609471
216,faanui,-16.4833,-151.75,81.19400000000007,74,38,7.11,PF,1675609472
217,harer,9.3094,42.1258,70.62800000000007,28,52,6.58,ET,1675609472
218,petrolina,-9.3986,-40.5008,86.05400000000006,54,40,4.63,BR,1675609210
219,calvinia,-31.4707,19.776,84.97400000000002,20,17,7.47,ZA,1675609475
220,buala,-8.145,159.5921,76.85600000000002,96,100,5.49,SB,1675609476
221,bucarasica,8.041,-72.8654,72.5,47,27,2.18,CO,1675609476
222,fairbanks,64.8378,-147.7164,-16.257999999999953,76,0,0.0,US,1675609201
223,plaridel,14.8872,120.8572,80.58200000000002,79,74,1.58,PH,1675609477
224,tsuruga,35.6455,136.0558,36.64400000000008,79,4,1.18,JP,1675609478
225,chunhuhub,19.55,-88.6833,69.18800000000005,91,100,1.25,MX,1675609478
226,methven,-43.6333,171.65,56.912000000000056,70,2,3.07,NZ,1675609479
227,narsaq,60.9167,-46.05,17.81600000000001,82,99,1.93,GL,1675609409
228,khandbari,27.3747,87.2039,55.562000000000054,67,44,0.69,NP,1675609480
229,nome,64.5011,-165.4064,17.672000000000036,79,100,2.57,US,1675609481
230,lata,40.1629,-8.3327,66.48800000000004,38,0,3.66,PT,1675609482
231,kulykiv,50.3142,24.8176,24.60200000000008,81,100,5.08,UA,1675609483
232,porto santo,33.072,-16.3415,62.978000000000065,63,40,6.69,PT,1675609485
233,lavrentiya,65.5833,-171.0,-5.223999999999961,94,100,3.68,RU,1675609486
234,codrington,-38.2667,141.9667,55.148000000000025,88,33,2.47,AU,1675609486
235,omsukchan,62.5333,155.8,-34.779999999999944,99,89,2.03,RU,1675609487
236,qaqortoq,60.7167,-46.0333,20.444000000000074,78,100,3.25,GL,1675609489
237,bandar,2.05,99.75,74.3,97,100,0.92,ID,1675609491
238,pevek,69.7008,170.3133,-37.803999999999945,100,82,1.22,RU,1675609491
239,lompoc,34.6391,-120.4579,53.780000000000044,87,40,8.94,US,1675609436
240,karaton,-6.3424,106.1045,76.06400000000004,90,100,2.57,ID,1675609491
241,port macquarie,-31.4333,152.9167,68.9,80,26,0.84,AU,1675609492
242,pandan,14.0453,124.1694,77.37800000000007,89,100,4.88,PH,1675609493
243,honiara,-9.4333,159.95,77.63000000000004,96,100,2.93,SB,1675609493
244,srednekolymsk,67.45,153.6833,-33.375999999999934,99,100,3.16,RU,1675609494
245,hirara,24.8,125.2833,71.07800000000006,79,100,4.86,JP,1675609495
246,ajdabiya,30.7554,20.2263,60.944000000000074,53,41,10.29,LY,1675609483
247,tiarei,-17.5333,-149.3333,77.01800000000009,76,100,6.57,PF,1675609496
248,puerto escondido,15.85,-97.0667,79.62800000000007,89,0,4.12,MX,1675609497
249,orihuela,38.0848,-0.944,64.81400000000004,65,1,2.68,ES,1675609497
250,qaanaaq,77.484,-69.3632,-3.477999999999966,67,0,3.89,GL,1675609498
251,obo,5.3998,26.4869,97.88000000000004,10,82,3.67,CF,1675609498
252,rakiv lis,51.6217,24.9243,26.85200000000008,65,99,4.93,UA,1675609499
253,coihaique,-45.5752,-72.0662,70.41200000000006,32,20,5.14,CL,1675609500
254,ponta delgada,37.7333,-25.6667,63.320000000000064,77,20,4.63,PT,1675609501
255,grants,35.1473,-107.8514,38.93000000000004,45,33,2.19,US,1675609501
256,ulaangom,49.9811,92.0667,-8.64399999999997,92,100,0.82,MN,1675609502
257,kununurra,-15.7667,128.7333,80.58200000000002,83,84,1.03,AU,1675609467
258,sarangarh,21.6,83.0833,71.52800000000006,18,0,2.58,IN,1675609505
259,sorong,-0.8833,131.25,77.43200000000002,89,100,3.21,ID,1675609508
260,bambous virieux,-20.3428,57.7575,82.65200000000007,78,40,3.09,MU,1675609511
261,karratha,-20.7377,116.8463,89.15,52,13,5.72,AU,1675609375
262,vrutky,49.1133,18.9171,24.098000000000024,74,83,2.43,SK,1675609514
263,ostrovnoy,68.0531,39.5131,4.874000000000013,97,80,4.87,RU,1675609514
264,salalah,17.0151,54.0924,75.29000000000002,73,0,1.54,OM,1675609490
265,peniche,39.3558,-9.3811,67.08200000000002,49,2,3.7,PT,1675609516
266,sabang,5.8933,95.3214,81.64400000000008,70,95,2.48,ID,1675609517
267,annau,37.8876,58.516,53.096000000000046,58,19,3.09,TM,1675609518
268,kefamenanu,-9.4467,124.4781,70.98800000000004,97,100,1.26,ID,1675609520
269,chapais,49.7834,-74.8492,6.5839999999999925,88,100,3.31,CA,1675609521
270,santa marta de tormes,40.9506,-5.6272,54.03200000000002,38,0,5.66,ES,1675609522
271,gat,31.61,34.7642,61.483999999999995,10,1,4.91,IL,1675609523
272,lasa,46.6166,10.7002,41.68399999999999,80,12,2.66,IT,1675609526
273,broken hill,-31.95,141.4333,71.85200000000007,31,0,3.58,AU,1675609527
274,coquimbo,-29.9533,-71.3436,73.13000000000004,60,0,5.14,CL,1675609466
275,camacha,33.0833,-16.3333,60.22400000000001,63,40,6.69,PT,1675609529
276,ilulissat,69.2167,-51.1,1.4180000000000845,71,100,7.72,GL,1675609530
277,vangaindrano,-23.35,47.6,75.68600000000006,88,96,3.51,MG,1675609531
278,cervo,43.6702,-7.4101,53.96000000000008,74,54,10.16,ES,1675609531
279,touros,-5.1989,-35.4608,87.11600000000001,59,67,5.45,BR,1675609533
280,seoul,37.5683,126.9778,31.441999999999997,83,0,1.03,KR,1675609394
281,sao joao da barra,-21.6403,-41.0511,91.49000000000002,68,18,2.45,BR,1675609534
282,aklavik,68.2191,-135.0107,-45.23799999999994,99,44,1.29,CA,1675609535
283,yumbe,3.4651,31.2469,90.23000000000005,18,49,1.14,UG,1675609536
284,koster,-25.863,26.8976,76.73000000000005,40,69,2.23,ZA,1675609537
285,alugan,12.2188,125.4808,78.566,85,20,6.39,PH,1675609537
286,karatau,43.1667,70.4667,33.51200000000006,91,23,1.82,KZ,1675609538
287,tiksi,71.6872,128.8694,-29.289999999999964,100,100,1.49,RU,1675609538
288,nisia floresta,-6.0911,-35.2086,88.61000000000008,49,60,5.64,BR,1675609539
289,aitape,-3.1374,142.3475,79.03399999999999,86,100,0.9,PG,1675609540
290,sobolevo,54.4299,31.8996,24.583999999999993,89,100,3.54,RU,1675609541
291,kahului,20.8947,-156.47,74.84000000000002,89,0,6.26,US,1675609542
292,mariager,56.6498,9.9752,39.77600000000009,83,50,6.49,DK,1675609543
293,pangnirtung,66.1451,-65.7125,-28.929999999999936,97,100,0.68,CA,1675609544
294,alappuzha,9.49,76.3264,80.18600000000006,81,2,1.51,IN,1675609545
295,plattsburgh,44.6995,-73.4529,27.374000000000013,55,20,2.68,US,1675609545
296,shimoda,34.6667,138.95,40.1,71,32,2.53,JP,1675609547
297,abakaliki,6.3163,8.1169,99.28399999999999,26,100,0.65,NG,1675609547
298,avarua,-21.2078,-159.775,80.65400000000005,83,75,5.14,CK,1675609547
299,port hardy,50.6996,-127.4199,42.98000000000004,100,75,1.03,CA,1675609549
300,utete,-7.986,38.758,80.67200000000004,76,77,3.05,TZ,1675609549
301,tual,-5.6667,132.75,80.88800000000005,80,100,7.07,ID,1675609551
302,aksu,41.1231,80.2644,22.35200000000008,83,2,1.14,CN,1675609552
303,rio grande,-32.035,-52.0986,78.908,75,84,6.07,BR,1675609330
304,mount isa,-20.7333,139.5,76.766,100,100,3.09,AU,1675609292
305,antofagasta,-23.65,-70.4,76.28000000000004,66,1,3.24,CL,1675609554
306,rovaniemi,66.5,25.7167,18.80600000000003,93,100,2.57,FI,1675609554
307,cayenne,4.9333,-52.3333,73.43600000000006,100,75,2.06,GF,1675609446
308,yibin,28.7667,104.6238,59.41400000000003,58,99,2.33,CN,1675609555
309,biltine,14.5333,20.9167,91.79600000000005,6,85,4.45,TD,1675609555
310,mecca,21.4267,39.8261,78.18800000000005,47,73,5.37,SA,1675609556
311,zelenogorskiy,55.0333,87.0,-8.22999999999994,100,87,1.08,RU,1675609556
312,beloha,-25.1667,45.05,76.83800000000005,75,100,7.81,MG,1675609557
313,oistins,13.0667,-59.5333,84.29000000000002,61,75,10.29,BB,1675609558
314,garowe,8.4054,48.4845,81.57200000000003,29,5,6.11,SO,1675609558
315,tinskoy,56.1525,96.9161,-5.871999999999936,100,89,1.12,RU,1675609558
316,sile,41.1754,29.6133,42.56600000000001,72,100,8.49,TR,1675609559
317,isoka,-10.1606,32.6335,69.458,88,98,1.37,ZM,1675609560
318,kailua,21.4022,-157.7394,73.38200000000002,87,72,1.79,US,1675609561
319,ekhabi,53.5102,142.9671,-6.285999999999966,97,100,3.87,RU,1675609561
320,preobrazheniye,42.9019,133.9064,22.1,78,38,3.16,RU,1675609562
321,jaszdozsa,47.5661,20.0153,34.10600000000003,49,66,3.83,HU,1675609563
322,sibolga,1.7427,98.7792,75.72200000000004,93,100,1.66,ID,1675609565
323,teya,60.3778,92.6267,5.738000000000046,98,100,1.8,RU,1675609566
324,filingue,14.3521,3.3168,98.61800000000008,8,92,3.29,NE,1675609567
325,tigre,-34.426,-58.5796,86.27000000000007,45,0,2.57,AR,1675609568
326,mendota,36.7536,-120.3816,48.47000000000006,86,1,2.79,US,1675609569
327,poum,-20.2333,164.0167,83.066,83,20,9.06,NC,1675609570
328,shahrud,36.4182,54.9763,38.96600000000001,42,59,1.71,IR,1675609571
329,anju,39.6178,125.6647,23.108000000000004,85,77,1.59,KP,1675609571
330,ahipara,-35.1667,173.1667,63.68000000000004,92,100,3.14,NZ,1675609460
331,berlevag,70.8578,29.0864,23.0,73,100,4.63,NO,1675609565
332,sarab,38.6066,44.9883,43.91600000000001,49,100,5.14,IR,1675609572
333,taksimo,56.3444,114.8794,-0.2379999999999427,89,100,1.84,RU,1675609573
334,gamboma,-1.8764,15.8644,87.24199999999999,48,85,2.24,CG,1675609360
335,sitka,57.0531,-135.33,35.492,87,100,2.57,US,1675609574
336,namibe,-15.1961,12.1522,75.90200000000007,68,61,4.99,AO,1675609574
337,dharchula,29.85,80.5333,52.358000000000004,41,0,2.95,IN,1675609575
338,westport,41.1415,-73.3579,40.891999999999996,57,0,8.23,US,1675609575
339,cordoba,-31.4135,-64.1811,89.42000000000006,40,0,6.17,AR,1675609467
340,boa vista,2.8197,-60.6733,78.78200000000001,78,75,7.72,BR,1675609306
341,amos,48.5669,-78.1162,10.382000000000016,92,100,2.22,CA,1675609576
342,flinders,-34.5833,150.8552,71.38399999999999,73,94,1.66,AU,1675609577
343,bako,5.7833,36.5667,81.842,29,62,1.94,ET,1675609578
344,vila,42.0304,-8.1588,54.69800000000002,35,0,1.81,PT,1675609580
345,pisco,-13.7,-76.2167,74.01200000000006,88,20,3.6,PE,1675609582
346,gamba,-2.65,10.0,82.99400000000007,73,97,4.07,GA,1675609583
347,uchana,29.4667,76.1667,60.56600000000001,44,0,1.63,IN,1675609584
348,vallenar,-28.5708,-70.7581,79.86200000000005,42,0,1.94,CL,1675609585
349,huarmey,-10.0681,-78.1522,73.88600000000007,77,83,2.39,PE,1675609588
350,tshela,-4.9833,12.9333,84.12800000000007,64,98,1.88,CD,1675609589
351,port hedland,-20.3167,118.5667,84.25400000000005,84,8,3.6,AU,1675609590
352,fortuna,40.5982,-124.1573,47.354000000000056,97,100,1.54,US,1675609590
353,amuntai,-2.4177,115.2494,75.21800000000009,85,98,0.68,ID,1675609591
354,tornio,65.8481,24.1466,21.218000000000085,88,100,2.2,FI,1675609592
355,cairns,-16.9167,145.7667,80.54600000000005,97,100,4.12,AU,1675609361
356,atar,20.5169,-13.0499,77.95400000000005,13,15,5.03,MR,1675609450
357,cidreira,-30.1811,-50.2056,80.40200000000007,40,22,7.62,BR,1675609593
358,nevinnomyssk,44.6267,41.9453,32.18000000000004,75,100,4.57,RU,1675609307
359,bayir,37.2687,28.2167,39.72200000000004,100,100,3.06,TR,1675609594
360,santiago del estero,-27.7951,-64.2615,86.9,33,10,3.91,AR,1675609422
361,boca do acre,-8.7522,-67.3978,73.958,91,100,0.49,BR,1675609594
362,mazeikiai,56.3167,22.3333,25.772000000000038,79,96,2.1,LT,1675609450
363,la rioja,42.25,-2.5,44.38399999999999,67,9,2.74,ES,1675609595
364,san cristobal,7.7669,-72.225,75.38000000000004,58,52,3.6,VE,1675609595
365,eureka,40.8021,-124.1637,47.62400000000001,96,93,1.34,US,1675609595
366,ikom,5.9667,8.7063,100.74199999999999,24,100,1.58,NG,1675609596
367,martapura,-3.4167,114.85,78.89000000000001,94,20,1.03,ID,1675609597
368,semnan,35.5729,53.3971,49.838000000000044,27,0,2.06,IR,1675609503
369,neryungri,56.6709,124.6491,-8.931999999999967,100,100,0.48,RU,1675609597
370,san quintin,30.4833,-115.95,55.05800000000001,84,0,3.92,MX,1675609598
371,carballo,43.213,-8.691,62.00600000000003,60,0,4.14,ES,1675609598
372,sonoita,31.85,-112.8333,56.04800000000002,33,0,1.62,MX,1675609599
373,richards bay,-28.783,32.0377,79.97000000000006,69,15,4.46,ZA,1675609580
374,korla,41.7597,86.1469,30.182000000000016,68,100,1.01,CN,1675609599
375,mujiayingzi,42.1167,118.7833,19.633999999999993,48,82,0.83,CN,1675609600
376,prince rupert,54.3161,-130.3201,42.49400000000007,75,20,10.8,CA,1675609537
377,gwadar,25.1216,62.3254,72.01400000000004,72,1,6.93,PK,1675609600
378,basco,20.4487,121.9702,76.55,71,100,7.24,PH,1675609601
379,zapolyarnyy,69.4154,30.8136,6.080000000000041,91,98,3.04,RU,1675609601
380,nishihara,26.1842,127.7558,67.28000000000004,83,0,4.12,JP,1675609601
381,stilfontein,-26.8449,26.7683,87.00800000000001,23,58,3.76,ZA,1675609602
382,uinskoye,56.8817,56.5813,11.444000000000074,97,100,1.43,RU,1675609602
383,saquarema,-22.92,-42.5103,89.63600000000007,66,58,2.72,BR,1675609604
384,sur,22.5667,59.5289,72.37400000000001,73,31,3.78,OM,1675609604
385,methoni,36.8197,21.7049,46.25600000000003,67,59,5.64,GR,1675609605
386,stanislav,46.5691,32.1478,33.78200000000002,63,100,8.0,UA,1675609605
387,ugoofaaru,5.6667,73.0,81.17600000000009,75,100,3.01,MV,1675609606
388,male,4.1748,73.5089,84.14600000000004,61,75,7.2,MV,1675609606
389,maryborough,-25.5333,152.7,76.208,93,100,2.77,AU,1675609608
390,husavik,66.0449,-17.3389,44.27600000000009,81,100,12.59,IS,1675609610
391,greensburg,40.3015,-79.5389,48.938000000000045,47,40,10.8,US,1675609510
392,alice springs,-23.7,133.8833,62.15,63,1,0.0,AU,1675609610
393,jasrana,27.25,78.6833,62.88800000000005,46,0,2.28,IN,1675609612
394,yuancheng,36.652,107.7896,31.946000000000048,32,24,1.97,CN,1675609614
395,sayyan,15.1718,44.3244,64.92200000000004,22,75,4.45,YE,1675609614
396,sanmenxia,34.7747,111.1814,42.51200000000006,51,42,0.27,CN,1675609615
397,verkhnyaya sinyachikha,57.976,61.6673,8.852000000000078,99,85,1.28,RU,1675609616
398,taoudenni,22.6783,-3.9836,74.39000000000001,16,33,5.3,ML,1675609467
399,noumea,-22.2763,166.4572,84.00200000000008,99,75,4.98,NC,1675609616
400,hong gai,20.956,107.0946,67.91000000000008,95,99,2.85,VN,1675609617
401,mukhen,48.1,136.1,-0.6699999999999591,99,83,2.38,RU,1675609617
402,manavgat,36.7867,31.4431,50.45,84,100,7.6,TR,1675609618
403,antalaha,-14.9003,50.2788,78.24199999999999,88,100,3.76,MG,1675609618
404,grindavik,63.8424,-22.4338,46.86800000000009,100,100,15.95,IS,1675609619
405,chkalovskoye,44.8392,133.0436,4.172000000000036,98,93,0.67,RU,1675609619
406,chicama,-7.8447,-79.1469,72.14000000000001,59,32,2.99,PE,1675609620
407,shevchenkove,49.6959,37.1735,25.898000000000025,87,100,4.46,UA,1675609620
408,navolato,24.7672,-107.6944,59.18000000000004,49,0,1.51,MX,1675609621
409,havoysund,70.9963,24.6622,26.833999999999993,81,100,12.11,NO,1675609622
410,tucuma,-0.1833,-50.05,82.38200000000002,76,100,1.75,BR,1675609372
411,san policarpo,12.1791,125.5072,79.10600000000002,84,19,6.81,PH,1675609623
412,leningradskiy,69.3833,178.4167,-27.32799999999996,99,100,1.97,RU,1675609624
413,deputatskiy,69.3,139.9,-22.30599999999997,99,100,1.43,RU,1675609624
414,semey,50.4111,80.2275,10.994000000000074,96,100,3.04,KZ,1675609626
415,khani,41.9563,42.9566,40.56800000000008,64,100,2.38,GE,1675609626
416,caravelas,-17.7125,-39.2481,88.64600000000004,55,1,5.72,BR,1675609627
417,sao gabriel da cachoeira,-0.1303,-67.0892,78.51200000000006,85,98,1.24,BR,1675609628
418,uyuni,-20.4597,-66.825,49.082000000000015,65,100,1.39,BO,1675609629
419,yenagoa,4.9247,6.2642,84.57800000000006,65,100,1.98,NG,1675609630
420,oeiras do para,-2.0031,-49.8544,86.108,60,100,1.93,BR,1675609630
421,longyearbyen,78.2186,15.6401,21.038000000000046,73,100,19.55,SJ,1675609632
422,strai,58.2,7.9,41.63000000000004,60,0,1.03,NO,1675609634
423,lerwick,60.1545,-1.1494,46.4,81,100,8.71,GB,1675609635
424,pishin,30.5803,66.9961,53.65400000000005,50,71,5.04,PK,1675609636
425,bozoum,6.3193,16.3799,97.82600000000009,8,64,3.62,CF,1675609517
426,ust-nera,64.5667,143.2,-30.837999999999944,100,100,0.15,RU,1675609637
427,susanville,40.4163,-120.653,35.438000000000045,84,0,3.09,US,1675609638
428,bakchar,57.0186,82.0711,0.9680000000000355,100,96,0.97,RU,1675609640
429,rocha,-34.4833,-54.3333,77.91800000000009,51,35,4.26,UY,1675609641
430,bani,18.2833,-70.3333,80.85200000000007,60,7,6.72,DO,1675609642
431,sao francisco,-15.9486,-44.8644,89.20400000000005,50,39,0.76,BR,1675609643
432,saint-georges,12.0564,-61.7485,82.07600000000009,74,75,10.8,GD,1675609504
433,bardiyah,31.7561,25.0865,57.97400000000001,54,97,12.74,LY,1675609644
434,ariquemes,-9.9133,-63.0408,78.29600000000005,84,97,0.7,BR,1675609354
435,beberibe,-4.1797,-38.1306,82.76000000000008,74,82,4.11,BR,1675609646
436,green river,41.5286,-109.4662,25.196000000000048,65,100,1.34,US,1675609646
437,geraldton,-28.7667,114.6,73.81400000000004,73,100,6.17,AU,1675609648
438,necochea,-38.5473,-58.7368,84.57800000000006,31,18,4.68,AR,1675609537
439,adrar,20.5022,-10.0711,72.48200000000001,17,48,5.51,MR,1675609366
440,kieta,-6.2167,155.6333,77.16200000000006,88,100,1.28,PG,1675609650
441,katangli,51.7102,143.2326,-3.423999999999964,95,100,3.5,RU,1675609650
442,bida,9.0833,6.0167,105.00800000000001,8,94,2.14,NG,1675609436
443,sokolo,14.7328,-6.1219,89.87000000000006,9,5,4.09,ML,1675609651
444,havre-saint-pierre,50.2334,-63.5986,-7.2399999999999665,71,100,4.63,CA,1675609652
445,santa maria,-29.6842,-53.8069,80.22200000000004,29,4,3.27,BR,1675609645
446,strezhevoy,60.7333,77.5889,-2.9379999999999455,100,98,1.5,RU,1675609652
447,nanakuli,21.3906,-158.1547,73.34600000000005,78,0,2.06,US,1675609654
448,carmo do rio claro,-20.9719,-46.1189,79.25,69,100,3.04,BR,1675609655
449,nanortalik,60.1432,-45.2371,24.116000000000007,52,99,5.77,GL,1675609655
450,agadez,19.75,10.25,80.72600000000008,10,31,6.03,NE,1675609656
451,turukhansk,65.8167,87.9833,5.090000000000021,98,98,1.69,RU,1675609657
452,masunga,-20.6246,27.4488,79.19600000000005,47,100,3.66,BW,1675609657
453,jacareacanga,-6.2222,-57.7528,80.87000000000006,75,96,1.06,BR,1675609657
454,valdivia,-39.8142,-73.2459,75.29000000000002,50,12,1.72,CL,1675609649
455,luau,-10.7073,22.2247,66.52400000000002,88,97,2.31,AO,1675609659
456,rawah,34.4816,41.9093,59.07200000000004,42,78,5.05,IQ,1675609660
457,ust-kuyga,70.0167,135.6,-25.239999999999966,98,100,0.89,RU,1675609660
458,evanston,42.0411,-87.6901,39.110000000000085,72,20,5.66,US,1675609661
459,tilichiki,60.4667,166.1,-21.80199999999998,94,9,3.83,RU,1675609662
460,rio gallegos,-51.6226,-69.2181,57.254000000000055,26,20,20.06,AR,1675609665
461,morehead,37.2711,-87.1764,47.78600000000007,60,100,4.63,US,1675609665
462,payakumbuh,-0.2202,100.6308,68.95400000000005,97,100,1.42,ID,1675609666
463,chiredzi,-21.05,31.6667,88.142,36,41,5.64,ZW,1675609666
464,jataizinho,-23.2542,-50.98,88.37600000000009,62,40,3.6,BR,1675609667
465,karasburg,-28.0167,18.75,92.87600000000009,20,4,3.32,NA,1675609667
466,batouri,4.4333,14.3667,99.05,10,26,1.89,CM,1675609669
467,mehamn,71.0357,27.8492,22.946000000000048,74,20,7.72,NO,1675609669
468,zabol,32.25,67.25,36.842,86,61,1.34,AF,1675609670
469,mayo,38.8876,-76.5119,42.188000000000045,47,0,4.63,US,1675609670
470,sibu,2.3,111.8167,74.174,98,91,0.98,MY,1675609670
471,huaiyin,33.5886,119.0192,42.44000000000002,81,100,3.06,CN,1675609673
472,black river,18.0264,-77.8487,80.63600000000007,56,0,2.11,JM,1675609673
473,tomatlan,19.9333,-105.25,73.77800000000006,42,1,0.86,MX,1675609673
474,nanpiao,41.0982,120.7479,27.248000000000026,42,82,2.04,CN,1675609674
475,shenjiamen,29.9576,122.298,52.05200000000008,89,100,6.15,CN,1675609674
476,novaya ladoga,60.1025,32.3019,18.158000000000005,92,100,3.48,RU,1675609675
477,ponerihouen,-21.0833,165.4,80.942,87,94,4.4,NC,1675609676
478,misratah,32.3754,15.0925,60.044000000000075,67,37,9.21,LY,1675609676
479,ritchie,-29.038,24.6028,88.44800000000002,23,78,5.28,ZA,1675609677
480,hammerfest,70.6634,23.6821,28.85,86,75,0.51,NO,1675609677
481,vagur,61.4732,-6.8119,44.83399999999999,85,100,16.46,FO,1675609677
482,moerai,-22.4333,-151.3333,79.82600000000009,73,57,5.8,PF,1675609678
483,college,64.8569,-147.8028,-14.85399999999995,73,40,0.0,US,1675609678
484,ixtapa,20.7,-105.2,63.62600000000009,94,0,0.0,MX,1675609679
485,tupik,54.4253,119.9327,-20.595999999999947,97,38,1.46,RU,1675609679
486,puerto ayacucho,5.6639,-67.6236,85.55,57,99,0.54,VE,1675609679
487,guanare,9.0418,-69.7421,86.234,46,84,3.46,VE,1675609680
488,maniitsoq,65.4167,-52.9,4.532000000000018,87,100,7.89,GL,1675609680
489,arona,28.0996,-16.681,61.32200000000004,37,40,4.12,ES,1675609680
490,mnogovershinnyy,53.9353,139.9242,-13.251999999999974,96,96,1.65,RU,1675609681
491,zarichne,51.8126,26.129,25.736000000000068,71,99,4.81,UA,1675609681
492,wanaka,-44.7,169.15,57.110000000000085,86,89,0.45,NZ,1675609682
493,kenai,60.5544,-151.2583,21.091999999999995,94,100,9.77,US,1675609683
494,steinbach,50.1667,8.5667,43.17800000000007,93,100,1.03,DE,1675609684
495,ilinden,41.9961,21.5822,30.254000000000055,47,75,7.72,MK,1675609685
496,ulladulla,-35.35,150.4667,65.60600000000002,74,96,1.87,AU,1675609685
497,solnechnyy,50.7214,136.6319,-10.839999999999968,95,80,1.56,RU,1675609458
498,agadir,30.4202,-9.5982,72.05,35,1,4.73,MA,1675609318
499,nyazepetrovsk,56.0531,59.6028,2.3000000000000007,100,62,1.52,RU,1675609689
500,uniao,-4.5858,-42.8642,90.55400000000006,47,88,2.22,BR,1675609690
501,wanning,18.8003,110.3967,72.66200000000006,88,92,2.0,CN,1675609693
502,shelburne,44.0787,-80.2041,32.59400000000007,80,100,6.88,CA,1675609695
503,vila franca do campo,37.7167,-25.4333,63.01400000000003,67,0,3.33,PT,1675609695
504,nichinan,31.6,131.3667,50.648000000000025,83,100,1.91,JP,1675609696
505,labuhan,-6.8844,112.2051,78.71000000000008,85,100,3.47,ID,1675609697
506,chuy,-33.6971,-53.4616,77.01800000000009,56,15,5.24,UY,1675609698
507,tatawin,32.9297,10.4518,59.18000000000004,45,26,6.57,TN,1675609698
508,edd,13.9297,41.6925,78.96200000000006,77,100,4.43,ER,1675609699
509,mineiros,-17.5694,-52.5511,79.19600000000005,69,100,1.34,BR,1675609701
510,bilma,18.6853,12.9164,84.83000000000004,11,53,5.34,NE,1675609702
511,torres,-29.3353,-49.7269,81.82400000000001,35,69,2.6,BR,1675609703
512,yeppoon,-23.1333,150.7333,80.38399999999999,87,66,4.77,AU,1675609703
513,broome,42.2506,-75.833,32.19800000000002,61,0,3.58,US,1675609704
514,haines junction,60.7522,-137.5108,-1.2999999999999474,100,96,0.58,CA,1675609705
515,sagarejo,41.734,45.3315,36.03200000000002,49,73,1.01,GE,1675609706
516,great yarmouth,52.6083,1.7305,48.50600000000003,83,100,5.54,GB,1675609707
517,embu,-23.6489,-46.8522,80.63600000000007,72,76,5.13,BR,1675609708
518,kaeo,-35.1,173.7833,67.316,95,100,1.76,NZ,1675609709
519,araouane,18.9048,-3.5265,79.07000000000006,12,99,4.44,ML,1675609711
520,cristalina,-16.7686,-47.6136,78.60200000000007,56,84,1.73,BR,1675609711
521,machesney park,42.3472,-89.039,35.22200000000004,82,75,4.12,US,1675609712
522,medea,36.2642,2.7539,50.233999999999995,62,0,3.87,DZ,1675609713
523,aksarka,66.5606,67.7975,-7.221999999999937,99,58,2.85,RU,1675609714
524,flin flon,54.7682,-101.865,0.5180000000000362,97,100,1.87,CA,1675609715
525,verkhoyansk,67.5447,133.385,-31.19799999999998,99,100,0.57,RU,1675609715
526,kodiak,57.79,-152.4072,35.11400000000003,93,100,13.89,US,1675609715
527,samarai,-10.6167,150.6667,79.39400000000008,86,100,5.67,PG,1675609716
528,pilar,-9.5972,-35.9567,85.92800000000007,48,53,5.33,BR,1675609545
529,kavaratti,10.5669,72.642,81.53600000000007,72,3,2.39,IN,1675609717
530,viedma,-40.8135,-62.9967,95.16200000000006,17,72,8.66,AR,1675609717
531,bellefontaine,40.3612,-83.7597,42.314000000000036,56,100,4.02,US,1675609718
532,coahuayana,18.7333,-103.6833,77.82800000000006,36,0,0.89,MX,1675609718
533,kawalu,-7.3817,108.2082,74.08399999999999,89,99,0.94,ID,1675609719
534,oranjemund,-28.55,16.4333,69.08000000000004,75,4,10.22,NA,1675609719
535,octeville,49.6261,-1.6435,45.08600000000007,81,100,5.6,FR,1675609720
536,pingliang,35.5392,106.6861,34.610000000000085,37,1,3.14,CN,1675609720
537,auray,47.6703,-2.9918,55.418000000000085,74,40,4.87,FR,1675609721
538,porbandar,21.6422,69.6093,72.68000000000004,54,12,5.71,IN,1675609721
539,hilsa,25.3167,85.2833,69.72800000000007,47,0,3.15,IN,1675609723
540,rodrigues alves,-7.738,-72.6509,72.57200000000003,97,100,1.16,BR,1675609723
541,sorland,67.667,12.6934,39.056000000000026,65,75,5.66,NO,1675609724
542,pag,44.445,15.0575,39.77600000000009,47,6,6.07,HR,1675609725
543,wladyslawowo,54.7909,18.4009,34.79000000000002,78,99,2.66,PL,1675609726
544,bima,-8.4667,118.7167,76.316,94,100,1.73,ID,1675609726
545,mwense,-10.3845,28.698,73.61600000000001,81,89,1.04,ZM,1675609727
546,poronaysk,49.2167,143.1167,-9.219999999999956,96,91,1.18,RU,1675609728
547,nantucket,41.2835,-70.0995,43.141999999999996,74,0,7.2,US,1675609729
548,semirom,31.4167,51.5667,16.07000000000006,79,3,0.99,IR,1675609730
549,saint-augustin,51.226,-58.6502,-3.2979999999999734,67,95,4.28,CA,1675609730
550,bossangoa,6.4926,17.4552,101.03000000000004,8,68,2.59,CF,1675609730
551,saint-francois,46.4154,3.9054,47.641999999999996,69,100,6.17,FR,1675609613
552,dubrovnik,42.6481,18.0922,38.84000000000002,28,0,5.66,HR,1675609731
553,valdosta,30.8327,-83.2785,55.346000000000046,91,100,0.0,US,1675609669
554,itoman,26.1247,127.6694,68.01800000000009,83,100,4.12,JP,1675609731
555,calamar,10.2511,-74.9146,85.67600000000009,45,99,3.46,CO,1675609732
556,imeni poliny osipenko,52.4201,136.4853,-11.487999999999943,100,100,0.22,RU,1675609732
557,san patricio,28.017,-97.5169,63.89600000000005,86,0,0.76,US,1675609733
558,upington,-28.4478,21.2561,82.77800000000006,51,91,5.14,ZA,1675609433
559,lorengau,-2.0226,147.2712,80.49199999999999,81,100,1.78,PG,1675609733
560,pemangkat,1.1667,108.9667,77.59400000000008,87,98,2.17,ID,1675609735
561,aleksandrovka,46.8383,32.7612,32.846000000000046,66,100,6.38,UA,1675609735
562,bonthe,7.5264,-12.505,87.62000000000006,56,99,6.11,SL,1675609736
563,buraydah,26.326,43.975,70.25,24,70,1.58,SA,1675609473
564,mogadishu,2.0371,45.3438,78.58399999999999,74,52,9.12,SO,1675609612
565,dunedin,-45.8742,170.5036,65.80400000000006,47,85,4.02,NZ,1675609736
566,buchanan,5.8808,-10.0467,85.19000000000003,68,99,4.12,LR,1675609438
567,balykshi,47.0667,51.8667,8.600000000000001,92,24,3.0,KZ,1675609738
568,tyukalinsk,55.8732,72.1967,1.544000000000075,99,100,1.86,RU,1675609739
569,saint-pierre,-21.3393,55.4781,82.07600000000009,74,40,9.26,RE,1675609495
